[
    {
        "nome": "VILA VITORIA II",
        "coordinates": {
            "lat": "-23.087428",
            "lng": "-47.205198"
        }
    },
    {
        "nome": "VILA SAO FRANCISCO",
        "coordinates": {
            "lat": "-23.257973",
            "lng": "-47.307407"
        }
    },
    {
        "nome": "JD STA EMILIA",
        "coordinates": {
            "lat": "-23.425987",
            "lng": "-46.51236"
        }
    },
    {
        "nome": "JD BELA VISTA",
        "coordinates": {
            "lat": "-23.4293",
            "lng": "-46.508752"
        }
    },
    {
        "nome": "ITAGUACU",
        "coordinates": {
            "lat": "-22.859263",
            "lng": "-45.23381"
        }
    },
    {
        "nome": "PARI",
        "coordinates": {
            "lat": "-23.526942",
            "lng": "-46.61214"
        }
    },
    {
        "nome": "JD PAULISTA",
        "coordinates": {
            "lat": "-23.558926",
            "lng": "-46.669053"
        }
    },
    {
        "nome": "PINHEIROS",
        "coordinates": {
            "lat": "-23.5612",
            "lng": "-46.6806"
        }
    },
    {
        "nome": "ALTO DE PINHEIROS",
        "coordinates": {
            "lat": "-23.554511",
            "lng": "-46.708025"
        }
    },
    {
        "nome": "JAD EULALIA",
        "coordinates": {
            "lat": "-23.037656",
            "lng": "-45.560094"
        }
    },
    {
        "nome": "PARQUE SAO FRANCISCO",
        "coordinates": {
            "lat": "-23.554613",
            "lng": "-46.382223"
        }
    },
    {
        "nome": "CENTRO",
        "coordinates": {
            "lat": "-23.525096",
            "lng": "-46.200906"
        }
    },
    {
        "nome": "PRACA DA ARVORE",
        "coordinates": {
            "lat": "-23.610828",
            "lng": "-46.637954"
        }
    },
    {
        "nome": "NOSSA SRA. DO BOM CONSELHO",
        "coordinates": {
            "lat": "-23.645998",
            "lng": "-46.757105"
        }
    },
    {
        "nome": "VL RIO BRANCO",
        "coordinates": {
            "lat": "-23.175491",
            "lng": "-46.880155"
        }
    },
    {
        "nome": "CENTRO",
        "coordinates": {
            "lat": "-23.53825",
            "lng": "-46.771683"
        }
    },
    {
        "nome": "FRAGATA",
        "coordinates": {
            "lat": "-22.225776",
            "lng": "-49.934672"
        }
    },
    {
        "nome": "BATISTINI",
        "coordinates": {
            "lat": "-23.755583",
            "lng": "-46.57695"
        }
    },
    {
        "nome": "VILA CARMOSINA",
        "coordinates": {
            "lat": "-23.553666",
            "lng": "-46.455916"
        }
    },
    {
        "nome": "JD CLEMENTINO",
        "coordinates": {
            "lat": "-23.636325",
            "lng": "-46.789414"
        }
    },
    {
        "nome": "VL. N. CACHOEIRINHA",
        "coordinates": {
            "lat": "-23.466835",
            "lng": "-46.670113"
        }
    },
    {
        "nome": "INTERLAGOS",
        "coordinates": {
            "lat": "-23.679242",
            "lng": "-46.674867"
        }
    },
    {
        "nome": "CENTRO",
        "coordinates": {
            "lat": "-23.550866",
            "lng": "-46.630733"
        }
    },
    {
        "nome": "SANTANA",
        "coordinates": {
            "lat": "-23.5055",
            "lng": "-46.627433"
        }
    },
    {
        "nome": "PQ BAHIA",
        "coordinates": {
            "lat": "-23.604283",
            "lng": "-46.925685"
        }
    },
    {
        "nome": "VILA LEOPOLDINA",
        "coordinates": {
            "lat": "-23.531498",
            "lng": "-46.726992"
        }
    },
    {
        "nome": "JARDIM ADUTORA",
        "coordinates": {
            "lat": "-23.613502",
            "lng": "-46.503651"
        }
    },
    {
        "nome": "SUMARE",
        "coordinates": {
            "lat": "-23.526841",
            "lng": "-46.674169"
        }
    },
    {
        "nome": "JARDIM SAPOPEMBA",
        "coordinates": {
            "lat": "-23.605335",
            "lng": "-46.508366"
        }
    },
    {
        "nome": "SANTA CECILIA",
        "coordinates": {
            "lat": "-23.538766",
            "lng": "-46.650316"
        }
    },
    {
        "nome": "PARQUE MAMEDE",
        "coordinates": {
            "lat": "-23.684166",
            "lng": "-46.626316"
        }
    },
    {
        "nome": "BOQUEIRAO",
        "coordinates": {
            "lat": "-24.01091",
            "lng": "-46.418648"
        }
    },
    {
        "nome": "BUTANTA",
        "coordinates": {
            "lat": "-23.569516",
            "lng": "-46.7137"
        }
    },
    {
        "nome": "CANTO DO FORTE",
        "coordinates": {
            "lat": "-24.012117",
            "lng": "-46.401904"
        }
    },
    {
        "nome": "SANTANA",
        "coordinates": {
            "lat": "-23.5033",
            "lng": "-46.6395"
        }
    },
    {
        "nome": "VILA GUILHERME",
        "coordinates": {
            "lat": "-23.517679",
            "lng": "-46.617028"
        }
    },
    {
        "nome": "JACANA",
        "coordinates": {
            "lat": "-23.467916",
            "lng": "-46.58115"
        }
    },
    {
        "nome": "VL AEROPORTO",
        "coordinates": {
            "lat": "-22.974738",
            "lng": "-47.128763"
        }
    },
    {
        "nome": "CENTRO",
        "coordinates": {
            "lat": "-23.613483",
            "lng": "-46.579416"
        }
    },
    {
        "nome": "JD. PAULISTA",
        "coordinates": {
            "lat": "-23.56415",
            "lng": "-46.687"
        }
    },
    {
        "nome": "VILA DOS REMEDIOS",
        "coordinates": {
            "lat": "-23.51795",
            "lng": "-46.7525"
        }
    },
    {
        "nome": "QUINTINO FACCI II",
        "coordinates": {
            "lat": "-21.113286",
            "lng": "-47.79228"
        }
    },
    {
        "nome": "VILA MARLENE",
        "coordinates": {
            "lat": "-23.683816",
            "lng": "-46.55865"
        }
    },
    {
        "nome": "ITAQUERA",
        "coordinates": {
            "lat": "-23.551094",
            "lng": "-46.488804"
        }
    },
    {
        "nome": "VILA ANDRADE",
        "coordinates": {
            "lat": "-23.643016",
            "lng": "-46.73435"
        }
    },
    {
        "nome": "JD CALIFORNIA",
        "coordinates": {
            "lat": "-21.213189",
            "lng": "-47.827919"
        }
    },
    {
        "nome": "AGUA FUNDA",
        "coordinates": {
            "lat": "-23.643883",
            "lng": "-46.629421"
        }
    },
    {
        "nome": "MORUMBI",
        "coordinates": {
            "lat": "-23.63135",
            "lng": "-46.736416"
        }
    },
    {
        "nome": "CENTRO",
        "coordinates": {
            "lat": "-24.099024",
            "lng": "-46.632071"
        }
    },
    {
        "nome": "VILA NOEMIA",
        "coordinates": {
            "lat": "-23.663483",
            "lng": "-46.476142"
        }
    },
    {
        "nome": "PENHA",
        "coordinates": {
            "lat": "-23.522009",
            "lng": "-46.53944"
        }
    },
    {
        "nome": "JD MACEDONIA",
        "coordinates": {
            "lat": "-23.650456",
            "lng": "-46.7912"
        }
    },
    {
        "nome": "JD IPE",
        "coordinates": {
            "lat": "-23.600043",
            "lng": "-46.795591"
        }
    },
    {
        "nome": "PQ PRIMAVERA",
        "coordinates": {
            "lat": "-23.405733",
            "lng": "-46.490066"
        }
    },
    {
        "nome": "PRESIDENTE ALTINO",
        "coordinates": {
            "lat": "-23.528411",
            "lng": "-46.772816"
        }
    },
    {
        "nome": "PARQUE JACATUBA",
        "coordinates": {
            "lat": "-23.6525",
            "lng": "-46.514316"
        }
    },
    {
        "nome": "CENTRO",
        "coordinates": {
            "lat": "-23.665946",
            "lng": "-46.531052"
        }
    },
    {
        "nome": "PENHA",
        "coordinates": {
            "lat": "-23.51548",
            "lng": "-46.519946"
        }
    },
    {
        "nome": "VILA PARQUE JABAQUARA",
        "coordinates": {
            "lat": "-23.645833",
            "lng": "-46.641733"
        }
    },
    {
        "nome": "PINHEIROS",
        "coordinates": {
            "lat": "-23.576985",
            "lng": "-46.688143"
        }
    },
    {
        "nome": "VILA PROGRESSO",
        "coordinates": {
            "lat": "-23.5431",
            "lng": "-46.41085"
        }
    },
    {
        "nome": "VILA PRUDENTE",
        "coordinates": {
            "lat": "-23.581962",
            "lng": "-46.563607"
        }
    },
    {
        "nome": "CENTRO",
        "coordinates": {
            "lat": "-23.116714",
            "lng": "-46.550566"
        }
    },
    {
        "nome": "CENTRO",
        "coordinates": {
            "lat": "-21.216785",
            "lng": "-50.437735"
        }
    },
    {
        "nome": "LUZ",
        "coordinates": {
            "lat": "-23.94961",
            "lng": "-46.295623"
        }
    },
    {
        "nome": "TABO?O",
        "coordinates": {
            "lat": "-23.655189",
            "lng": "-46.594276"
        }
    },
    {
        "nome": "VILA ESPERANCA",
        "coordinates": {
            "lat": "-23.526533",
            "lng": "-46.5282"
        }
    },
    {
        "nome": "GONZAGA",
        "coordinates": {
            "lat": "-23.968908",
            "lng": "-46.33548"
        }
    },
    {
        "nome": "JD. SILVANA",
        "coordinates": {
            "lat": "-23.664416",
            "lng": "-46.679216"
        }
    },
    {
        "nome": "JARDIM PAULISTANO",
        "coordinates": {
            "lat": "-23.573133",
            "lng": "-46.689309"
        }
    },
    {
        "nome": "VILA SAO DOMINGOS",
        "coordinates": {
            "lat": "-23.492304",
            "lng": "-47.434589"
        }
    },
    {
        "nome": "APARECIDA",
        "coordinates": {
            "lat": "-23.975953",
            "lng": "-46.310329"
        }
    },
    {
        "nome": "PINHEIROS",
        "coordinates": {
            "lat": "-23.574123",
            "lng": "-46.696611"
        }
    },
    {
        "nome": "SUBDIVISAO FISA",
        "coordinates": {
            "lat": "-23.08408",
            "lng": "-47.213534"
        }
    },
    {
        "nome": "QUITAUNA",
        "coordinates": {
            "lat": "-23.5296",
            "lng": "-46.791216"
        }
    },
    {
        "nome": "JARDIM PLANALTO",
        "coordinates": {
            "lat": "-23.602372",
            "lng": "-46.511287"
        }
    },
    {
        "nome": "CIDADE BOA VISTA",
        "coordinates": {
            "lat": "-23.50734",
            "lng": "-46.30557"
        }
    },
    {
        "nome": "SAUDE",
        "coordinates": {
            "lat": "-23.604513",
            "lng": "-46.637085"
        }
    },
    {
        "nome": "VILA PARQUE JABAQUARA",
        "coordinates": {
            "lat": "-23.645833",
            "lng": "-46.641733"
        }
    },
    {
        "nome": "VILA SANTO ANTONIO",
        "coordinates": {
            "lat": "-23.395808",
            "lng": "-46.767279"
        }
    },
    {
        "nome": "VILA CAICARA",
        "coordinates": {
            "lat": "-24.032396",
            "lng": "-46.496961"
        }
    },
    {
        "nome": "CIDADE JARDIM",
        "coordinates": {
            "lat": "-23.582033",
            "lng": "-46.685283"
        }
    },
    {
        "nome": "BUTANTA",
        "coordinates": {
            "lat": "-23.569134",
            "lng": "-46.745522"
        }
    },
    {
        "nome": "HIGIENOPOLIS",
        "coordinates": {
            "lat": "-23.544016",
            "lng": "-46.656733"
        }
    },
    {
        "nome": "JARDIM",
        "coordinates": {
            "lat": "-23.649333",
            "lng": "-46.532874"
        }
    },
    {
        "nome": "GUAIANAZES",
        "coordinates": {
            "lat": "-23.541466",
            "lng": "-46.423783"
        }
    },
    {
        "nome": "SANTO AMARO",
        "coordinates": {
            "lat": "-23.650283",
            "lng": "-46.6996"
        }
    },
    {
        "nome": "VILA QUITAUNA",
        "coordinates": {
            "lat": "-23.530147",
            "lng": "-46.794346"
        }
    },
    {
        "nome": "PARQUE SABES",
        "coordinates": {
            "lat": "-22.018701",
            "lng": "-47.916938"
        }
    },
    {
        "nome": "PIRITUBA",
        "coordinates": {
            "lat": "-23.491006",
            "lng": "-46.717067"
        }
    },
    {
        "nome": "CENTRO",
        "coordinates": {
            "lat": "-23.704076",
            "lng": "-46.552112"
        }
    },
    {
        "nome": "ANHANGUERA",
        "coordinates": {
            "lat": "-23.479499",
            "lng": "-46.77093"
        }
    },
    {
        "nome": "LIMAO",
        "coordinates": {
            "lat": "-23.499589",
            "lng": "-46.664453"
        }
    },
    {
        "nome": "CENTRO",
        "coordinates": {
            "lat": "-23.43427",
            "lng": "-45.069885"
        }
    },
    {
        "nome": "ALTO DA LAPA",
        "coordinates": {
            "lat": "-23.534727",
            "lng": "-46.712811"
        }
    },
    {
        "nome": "JD MORADA DO SOL",
        "coordinates": {
            "lat": "-23.115611",
            "lng": "-47.240703"
        }
    },
    {
        "nome": "VILA NOGUEIRA",
        "coordinates": {
            "lat": "-23.690433",
            "lng": "-46.591116"
        }
    },
    {
        "nome": "BOTUJURU",
        "coordinates": {
            "lat": "-23.23691",
            "lng": "-46.767318"
        }
    },
    {
        "nome": "VILA MONTE BELO",
        "coordinates": {
            "lat": "-23.490202",
            "lng": "-46.365865"
        }
    },
    {
        "nome": "CENTRO",
        "coordinates": {
            "lat": "-22.492151",
            "lng": "-48.550028"
        }
    },
    {
        "nome": "ARICANDUVA",
        "coordinates": {
            "lat": "-23.565838",
            "lng": "-46.502028"
        }
    },
    {
        "nome": "BUTANTA",
        "coordinates": {
            "lat": "-23.586713",
            "lng": "-46.725097"
        }
    },
    {
        "nome": "VILA DIRCE",
        "coordinates": {
            "lat": "-23.561629",
            "lng": "-46.836847"
        }
    },
    {
        "nome": "JARDIM SAO PAULO",
        "coordinates": {
            "lat": "-23.492372",
            "lng": "-46.617617"
        }
    },
    {
        "nome": "CENTRO",
        "coordinates": {
            "lat": "-23.024962",
            "lng": "-45.555128"
        }
    },
    {
        "nome": "JARDIM ARACATI",
        "coordinates": {
            "lat": "-23.719728",
            "lng": "-46.769085"
        }
    },
    {
        "nome": "MUNHOZ JUNIOR",
        "coordinates": {
            "lat": "-23.497247",
            "lng": "-46.807559"
        }
    },
    {
        "nome": "VILA BASTOS",
        "coordinates": {
            "lat": "-23.66553",
            "lng": "-46.540579"
        }
    },
    {
        "nome": "BROOKLIN",
        "coordinates": {
            "lat": "-23.607683",
            "lng": "-46.693866"
        }
    },
    {
        "nome": "JURUBATUBA",
        "coordinates": {
            "lat": "-23.67823",
            "lng": "-46.697441"
        }
    },
    {
        "nome": "CENTRO",
        "coordinates": {
            "lat": "-23.68696",
            "lng": "-46.802984"
        }
    },
    {
        "nome": "PQ RESID MARENGO",
        "coordinates": {
            "lat": "-23.485429",
            "lng": "-46.298716"
        }
    },
    {
        "nome": "PQ RIZZO",
        "coordinates": {
            "lat": "-23.583825",
            "lng": "-46.920014"
        }
    },
    {
        "nome": "JARDIM CLEMENTINO",
        "coordinates": {
            "lat": "-23.633631",
            "lng": "-46.784299"
        }
    },
    {
        "nome": "DOCAS",
        "coordinates": {
            "lat": "-23.951039",
            "lng": "-46.312193"
        }
    },
    {
        "nome": "CENTRO",
        "coordinates": {
            "lat": "-23.469459",
            "lng": "-46.530942"
        }
    },
    {
        "nome": "JARDIM DABRIL",
        "coordinates": {
            "lat": "-23.570339",
            "lng": "-46.778564"
        }
    },
    {
        "nome": "JARDIM SAO LUIS",
        "coordinates": {
            "lat": "-23.666367",
            "lng": "-46.719886"
        }
    },
    {
        "nome": "VILA CERCADO GRANDE",
        "coordinates": {
            "lat": "-23.647378",
            "lng": "-46.847852"
        }
    },
    {
        "nome": "JD SAO PAULO",
        "coordinates": {
            "lat": "-22.753236",
            "lng": "-47.347865"
        }
    },
    {
        "nome": "LARANJEIRAS",
        "coordinates": {
            "lat": "-23.396646",
            "lng": "-46.717736"
        }
    },
    {
        "nome": "JD GUAEMBU",
        "coordinates": {
            "lat": "-23.722533",
            "lng": "-46.6837"
        }
    },
    {
        "nome": "JARDIM DA REPRESA",
        "coordinates": {
            "lat": "-23.773416",
            "lng": "-46.597366"
        }
    },
    {
        "nome": "SAPOPEMBA",
        "coordinates": {
            "lat": "-23.59688",
            "lng": "-46.522467"
        }
    },
    {
        "nome": "PENHA DE FRANCA",
        "coordinates": {
            "lat": "-23.522979",
            "lng": "-46.521312"
        }
    },
    {
        "nome": "JARDIM TELESPARK",
        "coordinates": {
            "lat": "-23.160478",
            "lng": "-45.905901"
        }
    },
    {
        "nome": "PARQUE PAULISTANO",
        "coordinates": {
            "lat": "-23.484333",
            "lng": "-46.423983"
        }
    },
    {
        "nome": "CONJ RES GALO BRANCO",
        "coordinates": {
            "lat": "-23.14029",
            "lng": "-45.77584"
        }
    },
    {
        "nome": "VILA SILVIANIA",
        "coordinates": {
            "lat": "-23.549971",
            "lng": "-46.843991"
        }
    },
    {
        "nome": "VILA MONTE SERRAT",
        "coordinates": {
            "lat": "-23.604508",
            "lng": "-46.921964"
        }
    },
    {
        "nome": "BELA VISTA",
        "coordinates": {
            "lat": "-22.733734",
            "lng": "-47.33187"
        }
    },
    {
        "nome": "JD DA SAUDE",
        "coordinates": {
            "lat": "-23.619833",
            "lng": "-46.627037"
        }
    },
    {
        "nome": "CENTR GUARUJA",
        "coordinates": {
            "lat": "-23.99753",
            "lng": "-46.257669"
        }
    },
    {
        "nome": "ALTO DO CARDOSO",
        "coordinates": {
            "lat": "-22.936762",
            "lng": "-45.465131"
        }
    },
    {
        "nome": "MIGUEL PAULISTA",
        "coordinates": {
            "lat": "-23.495228",
            "lng": "-46.432407"
        }
    },
    {
        "nome": "RIBEIRAO VERDE",
        "coordinates": {
            "lat": "-21.13244",
            "lng": "-47.741943"
        }
    },
    {
        "nome": "SITIO DO CAMPO",
        "coordinates": {
            "lat": "-23.997811",
            "lng": "-46.406841"
        }
    },
    {
        "nome": "Sem Bairro",
        "coordinates": {
            "lat": "-23.686037",
            "lng": "-46.618709"
        }
    },
    {
        "nome": "TAMBORE",
        "coordinates": {
            "lat": "-23.504393",
            "lng": "-46.834688"
        }
    },
    {
        "nome": "ALPHAVILLE",
        "coordinates": {
            "lat": "-23.4987",
            "lng": "-46.852333"
        }
    },
    {
        "nome": "VILA COSTA",
        "coordinates": {
            "lat": "-23.024988",
            "lng": "-45.5829"
        }
    },
    {
        "nome": "CENTRO",
        "coordinates": {
            "lat": "-23.024324",
            "lng": "-45.552322"
        }
    },
    {
        "nome": "FREGUESIA DO O",
        "coordinates": {
            "lat": "-23.486333",
            "lng": "-46.6926"
        }
    },
    {
        "nome": "JD EUROPA",
        "coordinates": {
            "lat": "-23.389132",
            "lng": "-47.343623"
        }
    },
    {
        "nome": "CONJ RES BOSQUE",
        "coordinates": {
            "lat": "-23.554214",
            "lng": "-46.222668"
        }
    },
    {
        "nome": "MARAPE",
        "coordinates": {
            "lat": "-23.954106",
            "lng": "-46.344477"
        }
    },
    {
        "nome": "JARDIM AUGUSTA",
        "coordinates": {
            "lat": "-23.199701",
            "lng": "-45.881017"
        }
    },
    {
        "nome": "FUNDACAO",
        "coordinates": {
            "lat": "-23.6104",
            "lng": "-46.564566"
        }
    },
    {
        "nome": "CIDADE MORUMBI",
        "coordinates": {
            "lat": "-23.221842",
            "lng": "-45.900957"
        }
    },
    {
        "nome": "GUAIANAZES",
        "coordinates": {
            "lat": "-23.542804",
            "lng": "-46.410735"
        }
    },
    {
        "nome": "TATUAPE",
        "coordinates": {
            "lat": "-23.538833",
            "lng": "-46.57665"
        }
    },
    {
        "nome": "PARQUE CONTINENTAL",
        "coordinates": {
            "lat": "-23.547548",
            "lng": "-46.756871"
        }
    },
    {
        "nome": "Sem Bairro",
        "coordinates": {
            "lat": "-23.614151",
            "lng": "-46.627693"
        }
    },
    {
        "nome": "SE",
        "coordinates": {
            "lat": "-23.553896",
            "lng": "-46.631112"
        }
    },
    {
        "nome": "JARDIM CALIFORNIA",
        "coordinates": {
            "lat": "-21.211953",
            "lng": "-47.816146"
        }
    },
    {
        "nome": "JD DO CENTRO",
        "coordinates": {
            "lat": "-23.826224",
            "lng": "-46.732629"
        }
    },
    {
        "nome": "VILA PARQUE JABAQUARA",
        "coordinates": {
            "lat": "-23.645833",
            "lng": "-46.641733"
        }
    },
    {
        "nome": "ITAQUERA",
        "coordinates": {
            "lat": "-23.535016",
            "lng": "-46.4562"
        }
    },
    {
        "nome": "ANA ROSA",
        "coordinates": {
            "lat": "-23.58185",
            "lng": "-46.639816"
        }
    },
    {
        "nome": "PENHA DE FRANCA",
        "coordinates": {
            "lat": "-23.522979",
            "lng": "-46.521312"
        }
    },
    {
        "nome": "VILA PIRATININGA",
        "coordinates": {
            "lat": "-23.190936",
            "lng": "-45.878166"
        }
    },
    {
        "nome": "ITAIM PAULISTA",
        "coordinates": {
            "lat": "-23.506542",
            "lng": "-46.395861"
        }
    },
    {
        "nome": "PARQUE PIRAJUSSARA",
        "coordinates": {
            "lat": "-23.648733",
            "lng": "-46.795383"
        }
    },
    {
        "nome": "JARDIM OCARA",
        "coordinates": {
            "lat": "-23.680216",
            "lng": "-46.550352"
        }
    },
    {
        "nome": "JD BRASILIA",
        "coordinates": {
            "lat": "-23.551788",
            "lng": "-46.49458"
        }
    },
    {
        "nome": "PQ UNIVERSITARIO VIRACOPOS",
        "coordinates": {
            "lat": "-22.970336",
            "lng": "-47.14073"
        }
    },
    {
        "nome": "JD. PAULISTA",
        "coordinates": {
            "lat": "-23.192422",
            "lng": "-45.878473"
        }
    },
    {
        "nome": "TREMEMBE",
        "coordinates": {
            "lat": "-23.449256",
            "lng": "-46.588776"
        }
    },
    {
        "nome": "TABOAO",
        "coordinates": {
            "lat": "-23.664991",
            "lng": "-46.600485"
        }
    },
    {
        "nome": "VILA PALMARES",
        "coordinates": {
            "lat": "-23.648739",
            "lng": "-46.559769"
        }
    },
    {
        "nome": "JARDIM",
        "coordinates": {
            "lat": "-23.649333",
            "lng": "-46.532874"
        }
    },
    {
        "nome": "CAMPESTRE",
        "coordinates": {
            "lat": "-23.639066",
            "lng": "-46.537916"
        }
    },
    {
        "nome": "JARDIM ANCHIETA",
        "coordinates": {
            "lat": "-23.687844",
            "lng": "-46.460193"
        }
    },
    {
        "nome": "CENTRO",
        "coordinates": {
            "lat": "-23.653712",
            "lng": "-46.527549"
        }
    },
    {
        "nome": "JARDIM ARMENIA",
        "coordinates": {
            "lat": "-23.516032",
            "lng": "-46.179769"
        }
    },
    {
        "nome": "JARDIM ZAIRA",
        "coordinates": {
            "lat": "-23.647487",
            "lng": "-46.437947"
        }
    },
    {
        "nome": "JD. SAO PAULO",
        "coordinates": {
            "lat": "-23.487866",
            "lng": "-46.62175"
        }
    },
    {
        "nome": "JARDIM MORUMBI",
        "coordinates": {
            "lat": "-20.835751",
            "lng": "-49.400317"
        }
    },
    {
        "nome": "BUTANTA",
        "coordinates": {
            "lat": "-23.586713",
            "lng": "-46.725097"
        }
    },
    {
        "nome": "VILA MARIANA",
        "coordinates": {
            "lat": "-23.581818",
            "lng": "-46.643722"
        }
    },
    {
        "nome": "CENTRO",
        "coordinates": {
            "lat": "-23.570433",
            "lng": "-46.641916"
        }
    },
    {
        "nome": "JARDIM SAO LUIS",
        "coordinates": {
            "lat": "-23.666367",
            "lng": "-46.719886"
        }
    },
    {
        "nome": "VILA SAO PAULO",
        "coordinates": {
            "lat": "-24.184515",
            "lng": "-46.787532"
        }
    },
    {
        "nome": "ZONA NORTE",
        "coordinates": {
            "lat": "-23.516242",
            "lng": "-46.625007"
        }
    },
    {
        "nome": "Sem Bairro",
        "coordinates": {
            "lat": "-23.611686",
            "lng": "-46.656725"
        }
    },
    {
        "nome": "BARCELONA",
        "coordinates": {
            "lat": "-23.62409",
            "lng": "-46.554182"
        }
    },
    {
        "nome": "ZONA NORTE",
        "coordinates": {
            "lat": "-23.516242",
            "lng": "-46.625007"
        }
    },
    {
        "nome": "PARI",
        "coordinates": {
            "lat": "-23.521602",
            "lng": "-46.62391"
        }
    },
    {
        "nome": "CASA VERDE",
        "coordinates": {
            "lat": "-23.513801",
            "lng": "-46.659475"
        }
    },
    {
        "nome": "PLANALTO VERDE",
        "coordinates": {
            "lat": "-21.138842",
            "lng": "-47.835052"
        }
    },
    {
        "nome": "FRAGATA",
        "coordinates": {
            "lat": "-22.228723",
            "lng": "-49.930533"
        }
    },
    {
        "nome": "FERREIRA",
        "coordinates": {
            "lat": "-23.596358",
            "lng": "-46.745333"
        }
    },
    {
        "nome": "JARDIM SAO MIGUEL",
        "coordinates": {
            "lat": "-23.687266",
            "lng": "-47.020116"
        }
    },
    {
        "nome": "VILA MARIANA",
        "coordinates": {
            "lat": "-23.59315",
            "lng": "-46.636833"
        }
    },
    {
        "nome": "JARDIM INTEGRACAO",
        "coordinates": {
            "lat": "-20.516929",
            "lng": "-47.408099"
        }
    },
    {
        "nome": "VILA AREAO",
        "coordinates": {
            "lat": "-23.003161",
            "lng": "-45.55882"
        }
    },
    {
        "nome": "MAUA",
        "coordinates": {
            "lat": "-23.647666",
            "lng": "-46.576666"
        }
    },
    {
        "nome": "JD. DAS COLINAS",
        "coordinates": {
            "lat": "-23.204127",
            "lng": "-45.908733"
        }
    },
    {
        "nome": "SANTANA",
        "coordinates": {
            "lat": "-23.499985",
            "lng": "-46.624827"
        }
    },
    {
        "nome": "CENTRO",
        "coordinates": {
            "lat": "-23.69195",
            "lng": "-46.551333"
        }
    },
    {
        "nome": "HUMAITA",
        "coordinates": {
            "lat": "-23.661083",
            "lng": "-46.511033"
        }
    },
    {
        "nome": "JD DO CENTRO",
        "coordinates": {
            "lat": "-23.826224",
            "lng": "-46.732629"
        }
    },
    {
        "nome": "ROCHDALE",
        "coordinates": {
            "lat": "-23.5116",
            "lng": "-46.77815"
        }
    },
    {
        "nome": "RUDGE RAMOS",
        "coordinates": {
            "lat": "-23.66985",
            "lng": "-46.559566"
        }
    },
    {
        "nome": "CENTRO",
        "coordinates": {
            "lat": "-22.900861",
            "lng": "-47.058074"
        }
    },
    {
        "nome": "VILA BARROS",
        "coordinates": {
            "lat": "-23.446531",
            "lng": "-46.497797"
        }
    },
    {
        "nome": "JARDIM PEDREIRAS",
        "coordinates": {
            "lat": "-20.551088",
            "lng": "-47.409616"
        }
    },
    {
        "nome": "JABAQUARA",
        "coordinates": {
            "lat": "-23.946196",
            "lng": "-46.335545"
        }
    },
    {
        "nome": "VILA RICA",
        "coordinates": {
            "lat": "-23.963521",
            "lng": "-46.32859"
        }
    },
    {
        "nome": "PINHEIROS",
        "coordinates": {
            "lat": "-23.5651",
            "lng": "-46.680183"
        }
    },
    {
        "nome": "JD. BOA VISTA",
        "coordinates": {
            "lat": "-23.587116",
            "lng": "-46.751416"
        }
    },
    {
        "nome": "VILA COSTA",
        "coordinates": {
            "lat": "-23.024988",
            "lng": "-45.5829"
        }
    },
    {
        "nome": "TATUAPE",
        "coordinates": {
            "lat": "-23.560283",
            "lng": "-46.558833"
        }
    },
    {
        "nome": "VL MISSIONARIA",
        "coordinates": {
            "lat": "-23.685066",
            "lng": "-46.646702"
        }
    },
    {
        "nome": "VILA IAPI",
        "coordinates": {
            "lat": "-23.01777",
            "lng": "-45.565603"
        }
    },
    {
        "nome": "VILA DAS MERCES",
        "coordinates": {
            "lat": "-23.63165",
            "lng": "-46.598716"
        }
    },
    {
        "nome": "VILA GUILHERME",
        "coordinates": {
            "lat": "-23.517679",
            "lng": "-46.617028"
        }
    },
    {
        "nome": "JD ACOREANA",
        "coordinates": {
            "lat": "-23.511708",
            "lng": "-46.34485"
        }
    },
    {
        "nome": "VILA LUZITA",
        "coordinates": {
            "lat": "-23.703642",
            "lng": "-46.509939"
        }
    },
    {
        "nome": "CAXINGUI",
        "coordinates": {
            "lat": "-23.57975",
            "lng": "-46.711216"
        }
    },
    {
        "nome": "CASA VERDE",
        "coordinates": {
            "lat": "-23.501178",
            "lng": "-46.650222"
        }
    },
    {
        "nome": "JD RECORD",
        "coordinates": {
            "lat": "-23.629148",
            "lng": "-46.79665"
        }
    },
    {
        "nome": "JD. OSWALDO CRUZ",
        "coordinates": {
            "lat": "-23.236469",
            "lng": "-45.918234"
        }
    },
    {
        "nome": "SWIFT",
        "coordinates": {
            "lat": "-22.927276",
            "lng": "-47.041915"
        }
    },
    {
        "nome": "JARDIM DO ENGENHO",
        "coordinates": {
            "lat": "-23.614159",
            "lng": "-46.834593"
        }
    },
    {
        "nome": "SANTO ELIAS",
        "coordinates": {
            "lat": "-23.497833",
            "lng": "-46.747033"
        }
    },
    {
        "nome": "CENTRO",
        "coordinates": {
            "lat": "-23.9652",
            "lng": "-46.391268"
        }
    },
    {
        "nome": "ASSUNCAO",
        "coordinates": {
            "lat": "-23.741172",
            "lng": "-46.599425"
        }
    },
    {
        "nome": "CIDADE JARDIM",
        "coordinates": {
            "lat": "-23.626665",
            "lng": "-46.717255"
        }
    },
    {
        "nome": "VILA BANCARIA",
        "coordinates": {
            "lat": "-23.589245",
            "lng": "-46.50943"
        }
    },
    {
        "nome": "COCAIA",
        "coordinates": {
            "lat": "-23.453111",
            "lng": "-46.520325"
        }
    },
    {
        "nome": "IGUATEMI",
        "coordinates": {
            "lat": "-23.59591",
            "lng": "-46.436812"
        }
    },
    {
        "nome": "LIBERDADE",
        "coordinates": {
            "lat": "-23.5644",
            "lng": "-46.6392"
        }
    },
    {
        "nome": "JARDIM TIJUCO",
        "coordinates": {
            "lat": "-23.469979",
            "lng": "-46.5371"
        }
    },
    {
        "nome": "CENTRO",
        "coordinates": {
            "lat": "-23.614233",
            "lng": "-46.571866"
        }
    },
    {
        "nome": "JD SAO ROBERTO",
        "coordinates": {
            "lat": "-23.634233",
            "lng": "-46.7946"
        }
    },
    {
        "nome": "CHACARA SANTA LUZIA",
        "coordinates": {
            "lat": "-23.041568",
            "lng": "-45.566256"
        }
    },
    {
        "nome": "VILA CARMELA II",
        "coordinates": {
            "lat": "-23.400213",
            "lng": "-46.399274"
        }
    },
    {
        "nome": "GUAIANAZES",
        "coordinates": {
            "lat": "-23.538633",
            "lng": "-46.407433"
        }
    },
    {
        "nome": "CENTRO",
        "coordinates": {
            "lat": "-23.541434",
            "lng": "-46.312015"
        }
    },
    {
        "nome": "CAMPOS ELISEOS",
        "coordinates": {
            "lat": "-21.15931",
            "lng": "-47.8079"
        }
    },
    {
        "nome": "SANTA FE",
        "coordinates": {
            "lat": "-23.482233",
            "lng": "-46.773833"
        }
    },
    {
        "nome": "CENTRO",
        "coordinates": {
            "lat": "-23.698032",
            "lng": "-46.552781"
        }
    },
    {
        "nome": "VILA MARIA",
        "coordinates": {
            "lat": "-23.52205",
            "lng": "-46.5995"
        }
    },
    {
        "nome": "CENTRO",
        "coordinates": {
            "lat": "-20.528056",
            "lng": "-47.402596"
        }
    },
    {
        "nome": "JARDIM BONFIGLIOLI",
        "coordinates": {
            "lat": "-23.585116",
            "lng": "-46.7477"
        }
    },
    {
        "nome": "CENTRO",
        "coordinates": {
            "lat": "-23.570446",
            "lng": "-46.643748"
        }
    },
    {
        "nome": "BORACEIA",
        "coordinates": {
            "lat": "-23.836951",
            "lng": "-46.130377"
        }
    },
    {
        "nome": "JURUBATUBA",
        "coordinates": {
            "lat": "-23.67823",
            "lng": "-46.697441"
        }
    },
    {
        "nome": "JD PRESIDENTE DUTRA",
        "coordinates": {
            "lat": "-23.417409",
            "lng": "-46.43017"
        }
    },
    {
        "nome": "VILA CORDEIRO",
        "coordinates": {
            "lat": "-23.621307",
            "lng": "-46.699871"
        }
    },
    {
        "nome": "CONSOLACAO",
        "coordinates": {
            "lat": "-23.553316",
            "lng": "-46.654533"
        }
    },
    {
        "nome": "RECANTO CAMPINEIRO",
        "coordinates": {
            "lat": "-22.864276",
            "lng": "-47.217819"
        }
    },
    {
        "nome": "JD PAULISTANO",
        "coordinates": {
            "lat": "-21.774366",
            "lng": "-48.159516"
        }
    },
    {
        "nome": "PRQ NOVA ESPERANCA",
        "coordinates": {
            "lat": "-23.202558",
            "lng": "-45.784054"
        }
    },
    {
        "nome": "JARDIM DO LAGO",
        "coordinates": {
            "lat": "-22.930551",
            "lng": "-47.08707"
        }
    },
    {
        "nome": "JARDIM TRES MARIAS",
        "coordinates": {
            "lat": "-23.594857",
            "lng": "-46.442438"
        }
    },
    {
        "nome": "XXX",
        "coordinates": {
            "lat": "-22.831144",
            "lng": "-43.292399"
        }
    },
    {
        "nome": "JOSE BONIFACIO",
        "coordinates": {
            "lat": "-23.569416",
            "lng": "-46.445733"
        }
    },
    {
        "nome": "ITAIM BIBI",
        "coordinates": {
            "lat": "-23.583283",
            "lng": "-46.670416"
        }
    },
    {
        "nome": "ADELINO SIMIONI",
        "coordinates": {
            "lat": "-21.10928",
            "lng": "-47.798762"
        }
    },
    {
        "nome": "PARQUE INDEPENDENCIA",
        "coordinates": {
            "lat": "-23.686511",
            "lng": "-46.791033"
        }
    },
    {
        "nome": "JAGUARE",
        "coordinates": {
            "lat": "-23.554066",
            "lng": "-46.7425"
        }
    },
    {
        "nome": "VICENTE DE CARVALHO",
        "coordinates": {
            "lat": "-23.98743",
            "lng": "-46.264816"
        }
    },
    {
        "nome": "BOSQUE DA SAUDE",
        "coordinates": {
            "lat": "-23.618466",
            "lng": "-46.626983"
        }
    },
    {
        "nome": "HUMAITA",
        "coordinates": {
            "lat": "-23.661083",
            "lng": "-46.511033"
        }
    },
    {
        "nome": "JD ALMIRA",
        "coordinates": {
            "lat": "-22.35936",
            "lng": "-46.935583"
        }
    },
    {
        "nome": "JACUI",
        "coordinates": {
            "lat": "-23.498353",
            "lng": "-46.4554"
        }
    },
    {
        "nome": "VL SANTA CATARINA",
        "coordinates": {
            "lat": "-23.640929",
            "lng": "-46.667382"
        }
    },
    {
        "nome": "VILA GRACIOSA",
        "coordinates": {
            "lat": "-23.589781",
            "lng": "-46.543687"
        }
    },
    {
        "nome": "CJ HABIT PADRE ANCHIETA",
        "coordinates": {
            "lat": "-22.863284",
            "lng": "-47.150123"
        }
    },
    {
        "nome": "FERREIRA",
        "coordinates": {
            "lat": "-23.597266",
            "lng": "-46.740383"
        }
    },
    {
        "nome": "CIDADE BRASIL",
        "coordinates": {
            "lat": "-23.476116",
            "lng": "-46.553666"
        }
    },
    {
        "nome": "Sem Bairro",
        "coordinates": {
            "lat": "-23.614666",
            "lng": "-46.65875"
        }
    },
    {
        "nome": "VILA MARIANA",
        "coordinates": {
            "lat": "-23.593557",
            "lng": "-46.636218"
        }
    },
    {
        "nome": "IPIRANGA",
        "coordinates": {
            "lat": "-21.145696",
            "lng": "-47.819093"
        }
    },
    {
        "nome": "BELA VISTA",
        "coordinates": {
            "lat": "-23.5507",
            "lng": "-46.785016"
        }
    },
    {
        "nome": "JARDIM ZAIRA",
        "coordinates": {
            "lat": "-23.647894",
            "lng": "-46.437566"
        }
    },
    {
        "nome": "VILA CLEMENTINO",
        "coordinates": {
            "lat": "-23.592166",
            "lng": "-46.648383"
        }
    },
    {
        "nome": "CENTRO",
        "coordinates": {
            "lat": "-23.991761",
            "lng": "-46.25863"
        }
    },
    {
        "nome": "CENTRO",
        "coordinates": {
            "lat": "-23.995727",
            "lng": "-46.255883"
        }
    },
    {
        "nome": "CENTRO",
        "coordinates": {
            "lat": "-23.832732",
            "lng": "-46.816688"
        }
    },
    {
        "nome": "JARDIM PAULISTA",
        "coordinates": {
            "lat": "-23.566345",
            "lng": "-46.662924"
        }
    },
    {
        "nome": "JD DA SAUDE",
        "coordinates": {
            "lat": "-23.61995",
            "lng": "-46.6275"
        }
    },
    {
        "nome": "ITAIM BIBI",
        "coordinates": {
            "lat": "-23.625533",
            "lng": "-46.6868"
        }
    },
    {
        "nome": "JARDIM AUGUSTA",
        "coordinates": {
            "lat": "-23.200501",
            "lng": "-45.880232"
        }
    },
    {
        "nome": "PQ DOM PEDRO II",
        "coordinates": {
            "lat": "-23.541",
            "lng": "-46.6291"
        }
    },
    {
        "nome": "BUTANTA",
        "coordinates": {
            "lat": "-23.5478",
            "lng": "-46.7562"
        }
    },
    {
        "nome": "CAMPO LIMPO",
        "coordinates": {
            "lat": "-23.63352",
            "lng": "-46.770984"
        }
    },
    {
        "nome": "ENGENHO",
        "coordinates": {
            "lat": "-23.017651",
            "lng": "-46.840969"
        }
    },
    {
        "nome": "JARDIM PERI",
        "coordinates": {
            "lat": "-23.46385",
            "lng": "-46.654116"
        }
    },
    {
        "nome": "JD SAO JOSE",
        "coordinates": {
            "lat": "-23.762753",
            "lng": "-46.71593"
        }
    },
    {
        "nome": "FAZENDA LIMOEIRO",
        "coordinates": {
            "lat": "-23.084102",
            "lng": "-48.377164"
        }
    },
    {
        "nome": "APARECIDA",
        "coordinates": {
            "lat": "-23.975953",
            "lng": "-46.310329"
        }
    },
    {
        "nome": "VILA INDUSTRIAL",
        "coordinates": {
            "lat": "-23.60205",
            "lng": "-46.531045"
        }
    },
    {
        "nome": "ESTACAO",
        "coordinates": {
            "lat": "-23.485449",
            "lng": "-46.349689"
        }
    },
    {
        "nome": "CENTRO",
        "coordinates": {
            "lat": "-22.906197",
            "lng": "-47.061228"
        }
    },
    {
        "nome": "SANTANA",
        "coordinates": {
            "lat": "-23.496683",
            "lng": "-46.628116"
        }
    },
    {
        "nome": "CENTRO",
        "coordinates": {
            "lat": "-22.014741",
            "lng": "-47.890863"
        }
    },
    {
        "nome": "CHACARA DO ENCOSTO",
        "coordinates": {
            "lat": "-23.482036",
            "lng": "-46.631942"
        }
    },
    {
        "nome": "ALPHAVILLE",
        "coordinates": {
            "lat": "-23.4953",
            "lng": "-46.850383"
        }
    },
    {
        "nome": "LAUZANE PAULISTA",
        "coordinates": {
            "lat": "-23.477637",
            "lng": "-46.645237"
        }
    },
    {
        "nome": "JD. NOVO AEROPORTO",
        "coordinates": {
            "lat": "-20.810018",
            "lng": "-49.401198"
        }
    },
    {
        "nome": "SAO JOAO",
        "coordinates": {
            "lat": "-23.547572",
            "lng": "-46.941804"
        }
    },
    {
        "nome": "JARDIM PIRATININGA",
        "coordinates": {
            "lat": "-23.520028",
            "lng": "-46.78915"
        }
    },
    {
        "nome": "VILA NOVA CUMBICA",
        "coordinates": {
            "lat": "-23.462599",
            "lng": "-46.466507"
        }
    },
    {
        "nome": "JARDIM ANGELICA",
        "coordinates": {
            "lat": "-23.452553",
            "lng": "-46.415823"
        }
    },
    {
        "nome": "JD N S DE FATIMA",
        "coordinates": {
            "lat": "-22.562758",
            "lng": "-47.4207"
        }
    },
    {
        "nome": "PARQUE INDEPENDENCIA",
        "coordinates": {
            "lat": "-23.686616",
            "lng": "-46.790783"
        }
    },
    {
        "nome": "PENHA DE FRANCA",
        "coordinates": {
            "lat": "-23.523201",
            "lng": "-46.52175"
        }
    },
    {
        "nome": "CENTRO",
        "coordinates": {
            "lat": "-23.547883",
            "lng": "-46.636066"
        }
    },
    {
        "nome": "VILA ANDRADE",
        "coordinates": {
            "lat": "-23.643016",
            "lng": "-46.73435"
        }
    },
    {
        "nome": "JURUBATUBA",
        "coordinates": {
            "lat": "-23.67823",
            "lng": "-46.697441"
        }
    },
    {
        "nome": "JD NOSSA SENHORA DE FATIMA",
        "coordinates": {
            "lat": "-23.64605",
            "lng": "-46.8134"
        }
    },
    {
        "nome": "VILA FORMOSA",
        "coordinates": {
            "lat": "-23.563276",
            "lng": "-46.542064"
        }
    },
    {
        "nome": "LIBERDADE",
        "coordinates": {
            "lat": "-23.556116",
            "lng": "-46.636283"
        }
    },
    {
        "nome": "VILA LEOPOLDINA",
        "coordinates": {
            "lat": "-23.523717",
            "lng": "-46.73716"
        }
    },
    {
        "nome": "VILA ANITA COSTA",
        "coordinates": {
            "lat": "-23.536128",
            "lng": "-46.901168"
        }
    },
    {
        "nome": "CAUCAIA DO ALTO",
        "coordinates": {
            "lat": "-23.686581",
            "lng": "-47.020669"
        }
    },
    {
        "nome": "BARCELONA",
        "coordinates": {
            "lat": "-23.629016",
            "lng": "-46.552983"
        }
    },
    {
        "nome": "CANINDE",
        "coordinates": {
            "lat": "-23.5459",
            "lng": "-46.630733"
        }
    },
    {
        "nome": "CIDADE DUTRA",
        "coordinates": {
            "lat": "-23.726683",
            "lng": "-46.700466"
        }
    },
    {
        "nome": "PLANALTO",
        "coordinates": {
            "lat": "-23.690397",
            "lng": "-46.574592"
        }
    },
    {
        "nome": "JARDIM SAO FRANCISCO",
        "coordinates": {
            "lat": "-23.661716",
            "lng": "-46.816466"
        }
    },
    {
        "nome": "GUARANI",
        "coordinates": {
            "lat": "-23.463001",
            "lng": "-46.692089"
        }
    },
    {
        "nome": "JD. ALZIRA FRANCO",
        "coordinates": {
            "lat": "-23.618894",
            "lng": "-46.50173"
        }
    },
    {
        "nome": "PARQUE PINHEIROS",
        "coordinates": {
            "lat": "-23.623846",
            "lng": "-46.78157"
        }
    },
    {
        "nome": "JARDIM SANTA RITA",
        "coordinates": {
            "lat": "-21.996465",
            "lng": "-47.426194"
        }
    },
    {
        "nome": "PEDRO DA CUNHA ALBUQUERQUE LOPES 1537 \"",
        "coordinates": {
            "lat": "8584584",
            "lng": "-23.423374"
        }
    },
    {
        "nome": "VILA SILVA RIBEIRO",
        "coordinates": {
            "lat": "-23.553414",
            "lng": "-46.835682"
        }
    },
    {
        "nome": "JD NOSSA SENHORA DE FATIMA",
        "coordinates": {
            "lat": "-23.64605",
            "lng": "-46.8134"
        }
    },
    {
        "nome": "JD STO ONOFRE",
        "coordinates": {
            "lat": "-23.642319",
            "lng": "-46.805929"
        }
    },
    {
        "nome": "CENTRO",
        "coordinates": {
            "lat": "-23.967402",
            "lng": "-46.382883"
        }
    },
    {
        "nome": "PONTA DA PRAIA",
        "coordinates": {
            "lat": "-23.967882",
            "lng": "-46.328887"
        }
    },
    {
        "nome": "JOSE BONIFACIO",
        "coordinates": {
            "lat": "-23.553366",
            "lng": "-46.436616"
        }
    },
    {
        "nome": "BROOKLIN PAULISTA",
        "coordinates": {
            "lat": "-23.6688",
            "lng": "-46.53915"
        }
    },
    {
        "nome": "CIDADE SERODIO",
        "coordinates": {
            "lat": "-23.414688",
            "lng": "-46.460671"
        }
    },
    {
        "nome": "PERDIZES",
        "coordinates": {
            "lat": "-23.531383",
            "lng": "-46.674483"
        }
    },
    {
        "nome": "HIGIENOPOLIS",
        "coordinates": {
            "lat": "-23.545383",
            "lng": "-46.651766"
        }
    },
    {
        "nome": "JD. SANTA ROSALIA",
        "coordinates": {
            "lat": "-23.488913",
            "lng": "-47.443487"
        }
    },
    {
        "nome": "JARDIM ODETE",
        "coordinates": {
            "lat": "-23.467854",
            "lng": "-46.343642"
        }
    },
    {
        "nome": "CENTRO",
        "coordinates": {
            "lat": "-23.54061",
            "lng": "-46.639124"
        }
    },
    {
        "nome": "SANTANA",
        "coordinates": {
            "lat": "-23.492641",
            "lng": "-46.62643"
        }
    },
    {
        "nome": "SANTANA",
        "coordinates": {
            "lat": "-23.518033",
            "lng": "-46.628683"
        }
    },
    {
        "nome": "BOQUEIRAO",
        "coordinates": {
            "lat": "-24.01282",
            "lng": "-46.41463"
        }
    },
    {
        "nome": "CENTRO",
        "coordinates": {
            "lat": "-23.698494",
            "lng": "-46.555113"
        }
    },
    {
        "nome": "VILA LIVIERO",
        "coordinates": {
            "lat": "-23.645559",
            "lng": "-46.593937"
        }
    },
    {
        "nome": "CENTRO",
        "coordinates": {
            "lat": "-23.537633",
            "lng": "-46.769683"
        }
    },
    {
        "nome": "JD FRAGATA",
        "coordinates": {
            "lat": "-22.229224",
            "lng": "-49.930956"
        }
    },
    {
        "nome": "BUTANTA",
        "coordinates": {
            "lat": "-23.586713",
            "lng": "-46.725097"
        }
    },
    {
        "nome": "ZONA NORTE",
        "coordinates": {
            "lat": "-23.516242",
            "lng": "-46.625007"
        }
    },
    {
        "nome": "RES CIDADE JARDIM",
        "coordinates": {
            "lat": "-20.836212",
            "lng": "-49.365445"
        }
    },
    {
        "nome": "VILA MONTEIRO",
        "coordinates": {
            "lat": "-23.511811",
            "lng": "-46.344888"
        }
    },
    {
        "nome": "PQ. INDUSTRIAL",
        "coordinates": {
            "lat": "-20.834822",
            "lng": "-49.357335"
        }
    },
    {
        "nome": "VILA LUZITA",
        "coordinates": {
            "lat": "-23.699722",
            "lng": "-46.505973"
        }
    },
    {
        "nome": "JD. OSWALDO CRUZ",
        "coordinates": {
            "lat": "-23.236469",
            "lng": "-45.918234"
        }
    },
    {
        "nome": "CIDADE AUXILIADORA",
        "coordinates": {
            "lat": "-23.648942",
            "lng": "-46.757926"
        }
    },
    {
        "nome": "VILA SANTA CLARA",
        "coordinates": {
            "lat": "-23.573465",
            "lng": "-46.563218"
        }
    },
    {
        "nome": "BAETA NEVES",
        "coordinates": {
            "lat": "-23.687923",
            "lng": "-46.547467"
        }
    },
    {
        "nome": "JARDIM TIRO AO POMBO",
        "coordinates": {
            "lat": "-23.474098",
            "lng": "-46.684298"
        }
    },
    {
        "nome": "CENTRO",
        "coordinates": {
            "lat": "-23.511621",
            "lng": "-46.190354"
        }
    },
    {
        "nome": "CENTRO",
        "coordinates": {
            "lat": "-23.968712",
            "lng": "-46.375611"
        }
    },
    {
        "nome": "CENTRO",
        "coordinates": {
            "lat": "-23.519156",
            "lng": "-46.340653"
        }
    },
    {
        "nome": "Penha",
        "coordinates": {
            "lat": "-23.512834",
            "lng": "-46.554043"
        }
    },
    {
        "nome": "V ESPANHOLA",
        "coordinates": {
            "lat": "-23.276745",
            "lng": "-46.741074"
        }
    },
    {
        "nome": "JARDIM SANTA LUCRECIA",
        "coordinates": {
            "lat": "-23.432776",
            "lng": "-46.753619"
        }
    },
    {
        "nome": "CIDADE DABRIL",
        "coordinates": {
            "lat": "-23.452251",
            "lng": "-46.747696"
        }
    },
    {
        "nome": "CERQUEIRA CESAR",
        "coordinates": {
            "lat": "-23.566563",
            "lng": "-46.664845"
        }
    },
    {
        "nome": "JARDIM TRES MARIAS",
        "coordinates": {
            "lat": "-23.594841",
            "lng": "-46.44261"
        }
    },
    {
        "nome": "JD MARIETA",
        "coordinates": {
            "lat": "-23.517626",
            "lng": "-46.761959"
        }
    },
    {
        "nome": "JD. CALIFORNIA",
        "coordinates": {
            "lat": "-20.532599",
            "lng": "-48.560087"
        }
    },
    {
        "nome": "QUINTINO 1",
        "coordinates": {
            "lat": "-21.120854",
            "lng": "-47.783048"
        }
    },
    {
        "nome": "JARDIM MARISTELA",
        "coordinates": {
            "lat": "-23.475598",
            "lng": "-46.698876"
        }
    },
    {
        "nome": "JD ALBATROZ",
        "coordinates": {
            "lat": "-23.836956",
            "lng": "-46.130346"
        }
    },
    {
        "nome": "PARQUE DA MOOCA",
        "coordinates": {
            "lat": "-23.581833",
            "lng": "-46.592383"
        }
    },
    {
        "nome": "JARDIM SONIA MARIA",
        "coordinates": {
            "lat": "-23.744492",
            "lng": "-46.80083"
        }
    },
    {
        "nome": "CENTRO",
        "coordinates": {
            "lat": "-23.853977",
            "lng": "-46.944141"
        }
    },
    {
        "nome": "JARDIM SAO EDUARDO",
        "coordinates": {
            "lat": "-23.67163",
            "lng": "-46.803638"
        }
    },
    {
        "nome": "JARDIM ELIANA-A",
        "coordinates": {
            "lat": "-23.747269",
            "lng": "-46.664066"
        }
    },
    {
        "nome": "JARDIM LEONOR",
        "coordinates": {
            "lat": "-23.60025",
            "lng": "-46.715283"
        }
    },
    {
        "nome": "FERRAZOPOLIS",
        "coordinates": {
            "lat": "-23.73969",
            "lng": "-46.534225"
        }
    },
    {
        "nome": "CIDADE MONCOES",
        "coordinates": {
            "lat": "-23.613737",
            "lng": "-46.682942"
        }
    },
    {
        "nome": "VILA CARRAO",
        "coordinates": {
            "lat": "-23.547013",
            "lng": "-46.540865"
        }
    },
    {
        "nome": "JD. AEROPORTO",
        "coordinates": {
            "lat": "-21.137659",
            "lng": "-47.798741"
        }
    },
    {
        "nome": "CENTRO",
        "coordinates": {
            "lat": "-23.026917",
            "lng": "-46.978222"
        }
    },
    {
        "nome": "PARQUE DOS CAMARGOS",
        "coordinates": {
            "lat": "-23.534907",
            "lng": "-46.890071"
        }
    },
    {
        "nome": "CENTRO",
        "coordinates": {
            "lat": "-23.69195",
            "lng": "-46.551333"
        }
    },
    {
        "nome": "BRAS CUBAS",
        "coordinates": {
            "lat": "-23.541083",
            "lng": "-46.214943"
        }
    },
    {
        "nome": "JD LAVINIA",
        "coordinates": {
            "lat": "-23.726612",
            "lng": "-46.560749"
        }
    },
    {
        "nome": "JARDIM BELA VISTA",
        "coordinates": {
            "lat": "-23.438769",
            "lng": "-46.508774"
        }
    },
    {
        "nome": "PARQUE SANTA TEREZA",
        "coordinates": {
            "lat": "-23.545276",
            "lng": "-46.898268"
        }
    },
    {
        "nome": "CENTRO",
        "coordinates": {
            "lat": "-23.531566",
            "lng": "-46.775733"
        }
    },
    {
        "nome": "CENTRO",
        "coordinates": {
            "lat": "-22.953236",
            "lng": "-46.54733"
        }
    },
    {
        "nome": "BAL GAIVOTA",
        "coordinates": {
            "lat": "-24.148423",
            "lng": "-46.728207"
        }
    },
    {
        "nome": "CJ.RESIDENCIAL JOSE BONIFACIO",
        "coordinates": {
            "lat": "-23.551666",
            "lng": "-46.436983"
        }
    },
    {
        "nome": "SANTO AMARO",
        "coordinates": {
            "lat": "-23.654816",
            "lng": "-46.711516"
        }
    },
    {
        "nome": "PINHEIROS",
        "coordinates": {
            "lat": "-23.565563",
            "lng": "-46.692565"
        }
    },
    {
        "nome": "ALPHAVILLE",
        "coordinates": {
            "lat": "-23.49648",
            "lng": "-46.849179"
        }
    },
    {
        "nome": "JARDIM PLANALTO",
        "coordinates": {
            "lat": "-23.59885",
            "lng": "-46.51808"
        }
    },
    {
        "nome": "PARQUE NOVO ORATORIO",
        "coordinates": {
            "lat": "-23.633582",
            "lng": "-46.502116"
        }
    },
    {
        "nome": "SANTO AMARO",
        "coordinates": {
            "lat": "-23.655053",
            "lng": "-46.69145"
        }
    },
    {
        "nome": "JARDIM DAS FLORES",
        "coordinates": {
            "lat": "-23.668416",
            "lng": "-46.735583"
        }
    },
    {
        "nome": "PIRAJUSSARA",
        "coordinates": {
            "lat": "-23.638933",
            "lng": "-46.799516"
        }
    },
    {
        "nome": "PARQUE DAS AMERICAS",
        "coordinates": {
            "lat": "-23.691316",
            "lng": "-46.4475"
        }
    },
    {
        "nome": "CONCEICAO",
        "coordinates": {
            "lat": "-23.699807",
            "lng": "-46.61094"
        }
    },
    {
        "nome": "ALVARENGA",
        "coordinates": {
            "lat": "-23.7507",
            "lng": "-46.598769"
        }
    },
    {
        "nome": "JARDIM TABOAO",
        "coordinates": {
            "lat": "-23.431739",
            "lng": "-46.502486"
        }
    },
    {
        "nome": "CENTRO",
        "coordinates": {
            "lat": "-23.546989",
            "lng": "-46.313052"
        }
    },
    {
        "nome": "JARDIM ARMENIA",
        "coordinates": {
            "lat": "-23.517085",
            "lng": "-46.178591"
        }
    },
    {
        "nome": "CENTRO",
        "coordinates": {
            "lat": "-23.470883",
            "lng": "-46.527416"
        }
    },
    {
        "nome": "VILA NOGUEIRA",
        "coordinates": {
            "lat": "-23.690433",
            "lng": "-46.591116"
        }
    },
    {
        "nome": "CENTRO",
        "coordinates": {
            "lat": "-23.487916",
            "lng": "-46.5503"
        }
    },
    {
        "nome": "JD RIO BRANCO",
        "coordinates": {
            "lat": "-23.981827",
            "lng": "-46.47099"
        }
    },
    {
        "nome": "PARQUE PINHEIROS",
        "coordinates": {
            "lat": "-23.624051",
            "lng": "-46.781464"
        }
    },
    {
        "nome": "CENTRO",
        "coordinates": {
            "lat": "-23.54171",
            "lng": "-47.451625"
        }
    },
    {
        "nome": "VILA NOVA CURUCA",
        "coordinates": {
            "lat": "-23.510877",
            "lng": "-46.430874"
        }
    },
    {
        "nome": "CENTRO",
        "coordinates": {
            "lat": "-23.184303",
            "lng": "-45.887325"
        }
    },
    {
        "nome": "JARDIM PEDREIRA",
        "coordinates": {
            "lat": "-23.692888",
            "lng": "-46.665422"
        }
    },
    {
        "nome": "PARQUE CECAP",
        "coordinates": {
            "lat": "-23.459266",
            "lng": "-46.494683"
        }
    },
    {
        "nome": "VILA ALPINA",
        "coordinates": {
            "lat": "-23.593866",
            "lng": "-46.56225"
        }
    },
    {
        "nome": "VILA GOMES",
        "coordinates": {
            "lat": "-23.6301",
            "lng": "-46.71175"
        }
    },
    {
        "nome": "CONSOLACAO",
        "coordinates": {
            "lat": "-23.557324",
            "lng": "-46.659413"
        }
    },
    {
        "nome": "PARADA INGLESA",
        "coordinates": {
            "lat": "-23.49285",
            "lng": "-46.6112"
        }
    },
    {
        "nome": "ITAIM PAULISTA",
        "coordinates": {
            "lat": "-23.494333",
            "lng": "-46.413933"
        }
    },
    {
        "nome": "VILA LAGEADO",
        "coordinates": {
            "lat": "-23.565148",
            "lng": "-46.744616"
        }
    },
    {
        "nome": "BELA VISTA",
        "coordinates": {
            "lat": "-23.666",
            "lng": "-46.541766"
        }
    },
    {
        "nome": "SANTANA",
        "coordinates": {
            "lat": "-23.50102",
            "lng": "-46.625884"
        }
    },
    {
        "nome": "JD.PASSARGADA",
        "coordinates": {
            "lat": "-23.600416",
            "lng": "-46.846633"
        }
    },
    {
        "nome": "PERUS",
        "coordinates": {
            "lat": "-23.406883",
            "lng": "-46.757"
        }
    },
    {
        "nome": "ARICANDUVA",
        "coordinates": {
            "lat": "-23.565852",
            "lng": "-46.50414"
        }
    },
    {
        "nome": "JD ORATORIO",
        "coordinates": {
            "lat": "-23.6555",
            "lng": "-46.468383"
        }
    },
    {
        "nome": "DEMARCHI",
        "coordinates": {
            "lat": "-23.741769",
            "lng": "-46.555334"
        }
    },
    {
        "nome": "JARDIM SERIMBURA",
        "coordinates": {
            "lat": "-23.230558",
            "lng": "-45.911834"
        }
    },
    {
        "nome": "JD MONTEIRO DA CRUZ",
        "coordinates": {
            "lat": "-23.955422",
            "lng": "-46.290458"
        }
    },
    {
        "nome": "JARDIM ITAQUITI",
        "coordinates": {
            "lat": "-23.504765",
            "lng": "-46.947332"
        }
    },
    {
        "nome": "JARDIM VERA CRUZ",
        "coordinates": {
            "lat": "-23.737002",
            "lng": "-46.780663"
        }
    },
    {
        "nome": "CENTRO",
        "coordinates": {
            "lat": "-23.52921",
            "lng": "-46.777948"
        }
    },
    {
        "nome": "JD. PAULISTA",
        "coordinates": {
            "lat": "-23.192422",
            "lng": "-45.878473"
        }
    },
    {
        "nome": "PINHEIROS",
        "coordinates": {
            "lat": "-23.574123",
            "lng": "-46.696611"
        }
    },
    {
        "nome": "INDIANOPOLIS",
        "coordinates": {
            "lat": "-23.610166",
            "lng": "-46.667866"
        }
    },
    {
        "nome": "CAMPO DO GALVAO",
        "coordinates": {
            "lat": "-22.81098",
            "lng": "-45.198233"
        }
    },
    {
        "nome": "JARDIM PAINEIRA",
        "coordinates": {
            "lat": "-23.454863",
            "lng": "-46.353769"
        }
    },
    {
        "nome": "ESTACAO",
        "coordinates": {
            "lat": "-24.319912",
            "lng": "-47.005273"
        }
    },
    {
        "nome": "LIBERDADE",
        "coordinates": {
            "lat": "-23.562316",
            "lng": "-46.641183"
        }
    },
    {
        "nome": "CAMPO GRANDE",
        "coordinates": {
            "lat": "-23.655783",
            "lng": "-46.691666"
        }
    },
    {
        "nome": "JD. SILVANA",
        "coordinates": {
            "lat": "-23.664416",
            "lng": "-46.679216"
        }
    },
    {
        "nome": "JD. OSWALDO CRUZ",
        "coordinates": {
            "lat": "-23.202958",
            "lng": "-45.884727"
        }
    },
    {
        "nome": "VILA VALENGA",
        "coordinates": {
            "lat": "-23.962434",
            "lng": "-46.375686"
        }
    },
    {
        "nome": "CENTRO",
        "coordinates": {
            "lat": "-23.649756",
            "lng": "-46.85284"
        }
    },
    {
        "nome": "JARDIM SATELITE",
        "coordinates": {
            "lat": "-23.217661",
            "lng": "-45.893799"
        }
    },
    {
        "nome": "RIO PEQUENO",
        "coordinates": {
            "lat": "-23.564858",
            "lng": "-46.750658"
        }
    },
    {
        "nome": "CENTRO",
        "coordinates": {
            "lat": "-23.528666",
            "lng": "-46.77835"
        }
    },
    {
        "nome": "OSWALDO CRUZ",
        "coordinates": {
            "lat": "-23.631521",
            "lng": "-46.56925"
        }
    },
    {
        "nome": "INDIANOPOLIS",
        "coordinates": {
            "lat": "-23.610166",
            "lng": "-46.667866"
        }
    },
    {
        "nome": "MOLLON",
        "coordinates": {
            "lat": "-22.750717",
            "lng": "-47.36703"
        }
    },
    {
        "nome": "CENTRO",
        "coordinates": {
            "lat": "-23.665",
            "lng": "-46.522516"
        }
    },
    {
        "nome": "SACOMA",
        "coordinates": {
            "lat": "-23.617373",
            "lng": "-46.601478"
        }
    },
    {
        "nome": "PQ VITORIA REGIA",
        "coordinates": {
            "lat": "-23.431818",
            "lng": "-47.46495"
        }
    },
    {
        "nome": "JARDIM BANANAL",
        "coordinates": {
            "lat": "-23.406982",
            "lng": "-46.470094"
        }
    },
    {
        "nome": "JD ORATORIO",
        "coordinates": {
            "lat": "-23.6555",
            "lng": "-46.468383"
        }
    },
    {
        "nome": "CAMPO BELO",
        "coordinates": {
            "lat": "-23.6252",
            "lng": "-46.667466"
        }
    },
    {
        "nome": "AEROPORTO",
        "coordinates": {
            "lat": "-23.649666",
            "lng": "-46.661366"
        }
    },
    {
        "nome": "VILA ROMANA",
        "coordinates": {
            "lat": "-23.521412",
            "lng": "-46.700936"
        }
    },
    {
        "nome": "JARDIM PERI",
        "coordinates": {
            "lat": "-23.46385",
            "lng": "-46.654116"
        }
    },
    {
        "nome": "JARDIM PAULISTANO",
        "coordinates": {
            "lat": "-23.573133",
            "lng": "-46.689309"
        }
    },
    {
        "nome": "ITAQUERA",
        "coordinates": {
            "lat": "-23.534122",
            "lng": "-46.450442"
        }
    },
    {
        "nome": "IPIRANGA",
        "coordinates": {
            "lat": "-23.585866",
            "lng": "-46.618016"
        }
    },
    {
        "nome": "Riviera S.Lourengo",
        "coordinates": {
            "lat": "-23.800228",
            "lng": "-46.022278"
        }
    },
    {
        "nome": "CAMARGO VELHO",
        "coordinates": {
            "lat": "-23.512",
            "lng": "-46.394116"
        }
    },
    {
        "nome": "PARQUE SAO RAFAEL",
        "coordinates": {
            "lat": "-23.624544",
            "lng": "-46.471334"
        }
    },
    {
        "nome": "VL NOVA CAICHOERINHA",
        "coordinates": {
            "lat": "-23.471816",
            "lng": "-46.6505"
        }
    },
    {
        "nome": "VILA JACUI",
        "coordinates": {
            "lat": "-23.514814",
            "lng": "-46.454024"
        }
    },
    {
        "nome": "ALPHAVILLE",
        "coordinates": {
            "lat": "-23.501433",
            "lng": "-46.8365"
        }
    },
    {
        "nome": "CENTRO",
        "coordinates": {
            "lat": "-23.686883",
            "lng": "-46.622083"
        }
    },
    {
        "nome": "JARDIM BARAO",
        "coordinates": {
            "lat": "-23.513903",
            "lng": "-46.372631"
        }
    },
    {
        "nome": "ITAIM PAULISTA",
        "coordinates": {
            "lat": "-23.5011",
            "lng": "-46.384616"
        }
    },
    {
        "nome": "MONTE BELO",
        "coordinates": {
            "lat": "-23.485416",
            "lng": "-46.364933"
        }
    },
    {
        "nome": "PQ SANTA DELFA",
        "coordinates": {
            "lat": "-23.323623",
            "lng": "-46.750414"
        }
    },
    {
        "nome": "CENTRO",
        "coordinates": {
            "lat": "-23.653325",
            "lng": "-46.526006"
        }
    },
    {
        "nome": "ALPHAVILLE",
        "coordinates": {
            "lat": "-23.462633",
            "lng": "-46.875416"
        }
    },
    {
        "nome": "SANTANA",
        "coordinates": {
            "lat": "-23.502283",
            "lng": "-46.626466"
        }
    },
    {
        "nome": "GUAIANAZES",
        "coordinates": {
            "lat": "-23.581604",
            "lng": "-46.409944"
        }
    },
    {
        "nome": "CENTRO",
        "coordinates": {
            "lat": "-23.965756",
            "lng": "-46.385877"
        }
    },
    {
        "nome": "JARDIM PONTE ALTA II",
        "coordinates": {
            "lat": "-23.394505",
            "lng": "-46.420035"
        }
    },
    {
        "nome": "JD CASA GRANDE",
        "coordinates": {
            "lat": "-23.708653",
            "lng": "-46.596179"
        }
    },
    {
        "nome": "CONJ. RES. JOSE BONIFACIO",
        "coordinates": {
            "lat": "-23.537916",
            "lng": "-46.426916"
        }
    },
    {
        "nome": "CASA VERDE",
        "coordinates": {
            "lat": "-23.49385",
            "lng": "-46.659733"
        }
    },
    {
        "nome": "JD. PAULISTA",
        "coordinates": {
            "lat": "-23.563651",
            "lng": "-46.687319"
        }
    },
    {
        "nome": "JARDIM SANTO ANDRE",
        "coordinates": {
            "lat": "-23.63985",
            "lng": "-46.539983"
        }
    },
    {
        "nome": "PENHA",
        "coordinates": {
            "lat": "-23.51882",
            "lng": "-46.547685"
        }
    },
    {
        "nome": "TATUAPE",
        "coordinates": {
            "lat": "-23.54735",
            "lng": "-46.563766"
        }
    },
    {
        "nome": "MORUMBI",
        "coordinates": {
            "lat": "-23.63135",
            "lng": "-46.736416"
        }
    },
    {
        "nome": "VICENTE DE CARVALHO",
        "coordinates": {
            "lat": "-23.98743",
            "lng": "-46.264816"
        }
    },
    {
        "nome": "IPIRANGA",
        "coordinates": {
            "lat": "-23.58185",
            "lng": "-46.600133"
        }
    },
    {
        "nome": "POMPEIA",
        "coordinates": {
            "lat": "-23.538321",
            "lng": "-46.690857"
        }
    },
    {
        "nome": "PENHA",
        "coordinates": {
            "lat": "-23.525246",
            "lng": "-46.546935"
        }
    },
    {
        "nome": "SANTO AMARO",
        "coordinates": {
            "lat": "-23.675067",
            "lng": "-46.677582"
        }
    },
    {
        "nome": "SWIFT",
        "coordinates": {
            "lat": "-22.927276",
            "lng": "-47.041915"
        }
    },
    {
        "nome": "CENTRO",
        "coordinates": {
            "lat": "-23.621823",
            "lng": "-45.41144"
        }
    },
    {
        "nome": "SANTOS DUMONT",
        "coordinates": {
            "lat": "-23.609066",
            "lng": "-46.7532"
        }
    },
    {
        "nome": "JD S?O JOAO",
        "coordinates": {
            "lat": "-22.717564",
            "lng": "-43.567182"
        }
    },
    {
        "nome": "CENTRO",
        "coordinates": {
            "lat": "-23.545443",
            "lng": "-46.931802"
        }
    },
    {
        "nome": "VELEIROS",
        "coordinates": {
            "lat": "-23.682262",
            "lng": "-46.708554"
        }
    },
    {
        "nome": "SANTANA",
        "coordinates": {
            "lat": "-23.503616",
            "lng": "-46.62455"
        }
    },
    {
        "nome": "CRISTO REY",
        "coordinates": {
            "lat": "-20.834822",
            "lng": "-49.357335"
        }
    },
    {
        "nome": "ARICANDUVA",
        "coordinates": {
            "lat": "-23.558841",
            "lng": "-46.513295"
        }
    },
    {
        "nome": "JD NOVA IORQUE",
        "coordinates": {
            "lat": "-21.221795",
            "lng": "-50.435396"
        }
    },
    {
        "nome": "SANTANA",
        "coordinates": {
            "lat": "-23.502283",
            "lng": "-46.626466"
        }
    },
    {
        "nome": "INDIANOPOLIS",
        "coordinates": {
            "lat": "-23.606683",
            "lng": "-46.6648"
        }
    },
    {
        "nome": "JD ARICANDUVA",
        "coordinates": {
            "lat": "-23.560266",
            "lng": "-46.51705"
        }
    },
    {
        "nome": "CENTRO",
        "coordinates": {
            "lat": "-23.523019",
            "lng": "-46.828899"
        }
    },
    {
        "nome": "JARDIM SALETE",
        "coordinates": {
            "lat": "-23.623846",
            "lng": "-46.800126"
        }
    },
    {
        "nome": "CENTRO",
        "coordinates": {
            "lat": "-23.705734",
            "lng": "-46.550641"
        }
    },
    {
        "nome": "JARDIM VELOSO",
        "coordinates": {
            "lat": "-23.566641",
            "lng": "-46.811338"
        }
    },
    {
        "nome": "ITARARE",
        "coordinates": {
            "lat": "-23.970542",
            "lng": "-46.370554"
        }
    },
    {
        "nome": "PARQUE CONTINENTAL",
        "coordinates": {
            "lat": "-23.547546",
            "lng": "-46.75687"
        }
    },
    {
        "nome": "ALPHAVILLE",
        "coordinates": {
            "lat": "-23.49525",
            "lng": "-46.852583"
        }
    },
    {
        "nome": "VILA JOANIZA",
        "coordinates": {
            "lat": "-23.674013",
            "lng": "-46.664115"
        }
    },
    {
        "nome": "IPIRANGA",
        "coordinates": {
            "lat": "-23.58809",
            "lng": "-46.620476"
        }
    },
    {
        "nome": "JARDIM NOVO OSASCO",
        "coordinates": {
            "lat": "-23.570383",
            "lng": "-46.7928"
        }
    },
    {
        "nome": "CENTRO",
        "coordinates": {
            "lat": "-23.188017",
            "lng": "-46.879476"
        }
    },
    {
        "nome": "CENTRO",
        "coordinates": {
            "lat": "-21.672854",
            "lng": "-49.755613"
        }
    },
    {
        "nome": "JD DO LAGO",
        "coordinates": {
            "lat": "-22.931935",
            "lng": "-47.078015"
        }
    },
    {
        "nome": "CENTRO",
        "coordinates": {
            "lat": "-23.70975",
            "lng": "-46.545566"
        }
    },
    {
        "nome": "PARQUE SUZANO",
        "coordinates": {
            "lat": "-23.535742",
            "lng": "-46.313016"
        }
    },
    {
        "nome": "VILA SEIXAS",
        "coordinates": {
            "lat": "-21.192265",
            "lng": "-47.801013"
        }
    },
    {
        "nome": "CENTRO",
        "coordinates": {
            "lat": "-22.813595",
            "lng": "-45.202075"
        }
    },
    {
        "nome": "VL MARIANA",
        "coordinates": {
            "lat": "-23.598608",
            "lng": "-46.636939"
        }
    },
    {
        "nome": "SANTA EFIGENIA",
        "coordinates": {
            "lat": "-23.536952",
            "lng": "-46.639511"
        }
    },
    {
        "nome": "PARQUE NACOES UNIDAS",
        "coordinates": {
            "lat": "-23.442391",
            "lng": "-46.735152"
        }
    },
    {
        "nome": "DOCAS",
        "coordinates": {
            "lat": "-23.951039",
            "lng": "-46.312193"
        }
    },
    {
        "nome": "PARAISO",
        "coordinates": {
            "lat": "-23.679468",
            "lng": "-46.5376"
        }
    },
    {
        "nome": "N. SENHORA DA APARECIDA",
        "coordinates": {
            "lat": "-20.8148",
            "lng": "-49.391719"
        }
    },
    {
        "nome": "VAZAME",
        "coordinates": {
            "lat": "-23.657516",
            "lng": "-46.803583"
        }
    },
    {
        "nome": "VILA RICA",
        "coordinates": {
            "lat": "-23.466965",
            "lng": "-46.670076"
        }
    },
    {
        "nome": "JARDIM CASA GRANDE",
        "coordinates": {
            "lat": "-23.775316",
            "lng": "-46.72205"
        }
    },
    {
        "nome": "VILA FORMOSA",
        "coordinates": {
            "lat": "-23.566218",
            "lng": "-46.545705"
        }
    },
    {
        "nome": "TATUAPE",
        "coordinates": {
            "lat": "-23.54198",
            "lng": "-46.575827"
        }
    },
    {
        "nome": "CENTRO",
        "coordinates": {
            "lat": "-23.933734",
            "lng": "-46.330256"
        }
    },
    {
        "nome": "CALCAREA",
        "coordinates": {
            "lat": "-23.395113",
            "lng": "-46.767635"
        }
    },
    {
        "nome": "CENTRO",
        "coordinates": {
            "lat": "-23.49696",
            "lng": "-47.4673"
        }
    },
    {
        "nome": "PAULICEIA",
        "coordinates": {
            "lat": "-23.66862",
            "lng": "-46.579558"
        }
    },
    {
        "nome": "VILA GUILHERME",
        "coordinates": {
            "lat": "-23.509407",
            "lng": "-46.615457"
        }
    },
    {
        "nome": "CENTRO",
        "coordinates": {
            "lat": "-23.834232",
            "lng": "-46.818046"
        }
    },
    {
        "nome": "CENTRO",
        "coordinates": {
            "lat": "-23.468233",
            "lng": "-46.521733"
        }
    },
    {
        "nome": "ITAVUVU",
        "coordinates": {
            "lat": "-23.452608",
            "lng": "-47.482727"
        }
    },
    {
        "nome": "JD VELOSO",
        "coordinates": {
            "lat": "-23.566641",
            "lng": "-46.811338"
        }
    },
    {
        "nome": "GONZAGA",
        "coordinates": {
            "lat": "-23.967022",
            "lng": "-46.336712"
        }
    },
    {
        "nome": "CENTRO",
        "coordinates": {
            "lat": "-23.722668",
            "lng": "-46.547191"
        }
    },
    {
        "nome": "BOM RETIRO",
        "coordinates": {
            "lat": "-23.523085",
            "lng": "-46.650444"
        }
    },
    {
        "nome": "SITIO DO CAMPO",
        "coordinates": {
            "lat": "-23.997701",
            "lng": "-46.411099"
        }
    },
    {
        "nome": "VILA SOUZA",
        "coordinates": {
            "lat": "-23.435537",
            "lng": "-46.716128"
        }
    },
    {
        "nome": "JARDIM DAS IMBUIAS",
        "coordinates": {
            "lat": "-23.729255",
            "lng": "-46.707473"
        }
    },
    {
        "nome": "JARDIM ALBERTINA",
        "coordinates": {
            "lat": "-23.444051",
            "lng": "-46.408054"
        }
    },
    {
        "nome": "MARESIAS",
        "coordinates": {
            "lat": "-23.820487",
            "lng": "-45.526721"
        }
    },
    {
        "nome": "SANTA CRUZ",
        "coordinates": {
            "lat": "-21.209935",
            "lng": "-47.787807"
        }
    },
    {
        "nome": "CIDADE BRASIL",
        "coordinates": {
            "lat": "-23.477143",
            "lng": "-46.553497"
        }
    },
    {
        "nome": "BRAS",
        "coordinates": {
            "lat": "-23.543037",
            "lng": "-46.617669"
        }
    },
    {
        "nome": "JARDIM IRAPIRANGA",
        "coordinates": {
            "lat": "-23.66241",
            "lng": "-46.793565"
        }
    },
    {
        "nome": "TABOAO",
        "coordinates": {
            "lat": "-23.668876",
            "lng": "-46.609844"
        }
    },
    {
        "nome": "JD DE ABRIL",
        "coordinates": {
            "lat": "-23.557432",
            "lng": "-46.781037"
        }
    },
    {
        "nome": "VILA PINHEIRO",
        "coordinates": {
            "lat": "-22.3475",
            "lng": "-46.947233"
        }
    },
    {
        "nome": "VILA BANCARIA",
        "coordinates": {
            "lat": "-23.590478",
            "lng": "-46.505148"
        }
    },
    {
        "nome": "CAMPOS ELISEOS",
        "coordinates": {
            "lat": "-23.942017",
            "lng": "-46.321428"
        }
    },
    {
        "nome": "PIRITUBA",
        "coordinates": {
            "lat": "-23.501691",
            "lng": "-46.699783"
        }
    },
    {
        "nome": "STO. ANTONIO",
        "coordinates": {
            "lat": "-23.991467",
            "lng": "-46.276112"
        }
    },
    {
        "nome": "CENTER SANTA GENEBRA",
        "coordinates": {
            "lat": "-22.847134",
            "lng": "-47.084863"
        }
    },
    {
        "nome": "PQ SAO LUIS",
        "coordinates": {
            "lat": "-23.430922",
            "lng": "-46.437986"
        }
    },
    {
        "nome": "PORTAO",
        "coordinates": {
            "lat": "-23.602133",
            "lng": "-46.913387"
        }
    },
    {
        "nome": "PARQUE NOVO ORATORIO",
        "coordinates": {
            "lat": "-23.633968",
            "lng": "-46.503069"
        }
    },
    {
        "nome": "SANTA TEREZINHA",
        "coordinates": {
            "lat": "-23.716604",
            "lng": "-46.54208"
        }
    },
    {
        "nome": "VILA MATILDE",
        "coordinates": {
            "lat": "-23.543061",
            "lng": "-46.530305"
        }
    },
    {
        "nome": "BELA VISTA",
        "coordinates": {
            "lat": "-23.568275",
            "lng": "-46.642971"
        }
    },
    {
        "nome": "JD HELENA",
        "coordinates": {
            "lat": "-22.729126",
            "lng": "-47.295842"
        }
    },
    {
        "nome": "SANTA  CRUZ",
        "coordinates": {
            "lat": "-22.406406",
            "lng": "-47.572346"
        }
    },
    {
        "nome": "JARDIM DA GLORIA",
        "coordinates": {
            "lat": "-23.610986",
            "lng": "-46.839309"
        }
    },
    {
        "nome": "CENTRO",
        "coordinates": {
            "lat": "-21.17535",
            "lng": "-47.81236"
        }
    },
    {
        "nome": "VILA ARCADIA",
        "coordinates": {
            "lat": "-23.49479",
            "lng": "-46.709017"
        }
    },
    {
        "nome": "SANTO AMARO",
        "coordinates": {
            "lat": "-23.653782",
            "lng": "-46.704876"
        }
    },
    {
        "nome": "VILA CARMELA",
        "coordinates": {
            "lat": "-23.399714",
            "lng": "-46.3929"
        }
    },
    {
        "nome": "JD IMPERIAL",
        "coordinates": {
            "lat": "-23.426758",
            "lng": "-46.509762"
        }
    },
    {
        "nome": "JD REMANSO",
        "coordinates": {
            "lat": "-23.684597",
            "lng": "-46.632392"
        }
    },
    {
        "nome": "MOGI MODERNO",
        "coordinates": {
            "lat": "-23.55134",
            "lng": "-46.183694"
        }
    },
    {
        "nome": "GLEBA I",
        "coordinates": {
            "lat": "-23.540633",
            "lng": "-46.469205"
        }
    },
    {
        "nome": "DIC IV (CONJ HAB LECH WALESA)",
        "coordinates": {
            "lat": "-22.985375",
            "lng": "-47.11954"
        }
    },
    {
        "nome": "BAETA NEVES",
        "coordinates": {
            "lat": "-23.693263",
            "lng": "-46.548947"
        }
    },
    {
        "nome": "VL ST RITA DE CASSIA",
        "coordinates": {
            "lat": "-23.717272",
            "lng": "-46.556564"
        }
    },
    {
        "nome": "ITAIM PAULISTA",
        "coordinates": {
            "lat": "-23.497688",
            "lng": "-46.397885"
        }
    },
    {
        "nome": "MORRINHOS",
        "coordinates": {
            "lat": "-23.961821",
            "lng": "-46.242871"
        }
    },
    {
        "nome": "SITIO MOINHOS",
        "coordinates": {
            "lat": "-23.546225",
            "lng": "-46.944666"
        }
    },
    {
        "nome": "RECANTO QUARTO CENTENARIO",
        "coordinates": {
            "lat": "-23.183919",
            "lng": "-46.91565"
        }
    },
    {
        "nome": "JARDIM S?O FRANCISCO",
        "coordinates": {
            "lat": "-23.688871",
            "lng": "-46.742846"
        }
    },
    {
        "nome": "JD SAO FRANCISCO",
        "coordinates": {
            "lat": "-23.603947",
            "lng": "-46.922607"
        }
    },
    {
        "nome": "CENTRO",
        "coordinates": {
            "lat": "-23.534068",
            "lng": "-46.78412"
        }
    },
    {
        "nome": "VILA GUARANI",
        "coordinates": {
            "lat": "-23.639906",
            "lng": "-46.640246"
        }
    },
    {
        "nome": "PORTARIA MORADA DA PRAIA",
        "coordinates": {
            "lat": "-23.806448",
            "lng": "-46.058989"
        }
    },
    {
        "nome": "PORTARIA MORADA DA PRAIA",
        "coordinates": {
            "lat": "-23.806448",
            "lng": "-46.058989"
        }
    },
    {
        "nome": "ITAQUERA",
        "coordinates": {
            "lat": "-23.530979",
            "lng": "-46.445585"
        }
    },
    {
        "nome": "PIRITUBA",
        "coordinates": {
            "lat": "-23.378639",
            "lng": "-46.328777"
        }
    },
    {
        "nome": "JARDIM MARAJO",
        "coordinates": {
            "lat": "-20.769937",
            "lng": "-49.38553"
        }
    },
    {
        "nome": "JARDIM TAIPAS",
        "coordinates": {
            "lat": "-23.430587",
            "lng": "-46.724639"
        }
    },
    {
        "nome": "JARDIM DAS OLIVEIRAS",
        "coordinates": {
            "lat": "-23.494461",
            "lng": "-46.376534"
        }
    },
    {
        "nome": "CENTRO",
        "coordinates": {
            "lat": "-23.303049",
            "lng": "-45.96111"
        }
    },
    {
        "nome": "LIBERDADE",
        "coordinates": {
            "lat": "-23.567476",
            "lng": "-46.643218"
        }
    },
    {
        "nome": "LIBERDADE",
        "coordinates": {
            "lat": "-23.567476",
            "lng": "-46.643218"
        }
    },
    {
        "nome": "JARDIM TIJUCO",
        "coordinates": {
            "lat": "-23.46815",
            "lng": "-46.5388"
        }
    },
    {
        "nome": "PRQ STOS DUMONT",
        "coordinates": {
            "lat": "-23.402415",
            "lng": "-46.472731"
        }
    },
    {
        "nome": "JD. DAS COLINAS",
        "coordinates": {
            "lat": "-23.204796",
            "lng": "-45.906453"
        }
    },
    {
        "nome": "SANTO AMARO",
        "coordinates": {
            "lat": "-23.652092",
            "lng": "-46.709962"
        }
    },
    {
        "nome": "BALNEARIO GAIVOTA",
        "coordinates": {
            "lat": "-24.242249",
            "lng": "-46.892052"
        }
    },
    {
        "nome": "PONTE NOVA",
        "coordinates": {
            "lat": "-22.9872",
            "lng": "-46.804914"
        }
    },
    {
        "nome": "JARDIM DOM BOSCO",
        "coordinates": {
            "lat": "-23.649831",
            "lng": "-46.718717"
        }
    },
    {
        "nome": "JD REMANSO",
        "coordinates": {
            "lat": "-23.684597",
            "lng": "-46.632392"
        }
    },
    {
        "nome": "GRAJAU",
        "coordinates": {
            "lat": "-23.7532",
            "lng": "-46.681155"
        }
    },
    {
        "nome": "GRAJAU",
        "coordinates": {
            "lat": "-23.7532",
            "lng": "-46.681155"
        }
    },
    {
        "nome": "JD TOKIO",
        "coordinates": {
            "lat": "-23.338167",
            "lng": "-47.865486"
        }
    },
    {
        "nome": "TAMBORE",
        "coordinates": {
            "lat": "-23.503867",
            "lng": "-46.84757"
        }
    },
    {
        "nome": "JARDIM CLEMENTINO",
        "coordinates": {
            "lat": "-23.635816",
            "lng": "-46.789377"
        }
    },
    {
        "nome": "JD N CAMPOS ELISEOS",
        "coordinates": {
            "lat": "-22.940926",
            "lng": "-47.108152"
        }
    },
    {
        "nome": "VILA CASCATINHA",
        "coordinates": {
            "lat": "-23.962509",
            "lng": "-46.380225"
        }
    },
    {
        "nome": "VILA DO AMERICANO",
        "coordinates": {
            "lat": "-23.546048",
            "lng": "-46.383594"
        }
    },
    {
        "nome": "VILA DIONISIA",
        "coordinates": {
            "lat": "-23.464939",
            "lng": "-46.664064"
        }
    },
    {
        "nome": "JD N CAMPOS ELISEOS",
        "coordinates": {
            "lat": "-22.940926",
            "lng": "-47.108152"
        }
    },
    {
        "nome": "PALMITAL MARILIA",
        "coordinates": {
            "lat": "-22.20352",
            "lng": "-49.95396"
        }
    },
    {
        "nome": "ZONA PRODUCAO INDUSTRIAL 03",
        "coordinates": {
            "lat": "-22.785326",
            "lng": "-47.300934"
        }
    },
    {
        "nome": "ESTUARIO",
        "coordinates": {
            "lat": "-23.963744",
            "lng": "-46.313102"
        }
    },
    {
        "nome": "ALTO DE PINHEIROS",
        "coordinates": {
            "lat": "-23.540103",
            "lng": "-46.717728"
        }
    },
    {
        "nome": "JD SAO CAETANO",
        "coordinates": {
            "lat": "-22.384495",
            "lng": "-47.573127"
        }
    },
    {
        "nome": "EDU CHAVES",
        "coordinates": {
            "lat": "-23.475961",
            "lng": "-46.572161"
        }
    },
    {
        "nome": "VILA INDAIA",
        "coordinates": {
            "lat": "-22.403549",
            "lng": "-47.552659"
        }
    },
    {
        "nome": "CAMPO DA AVIACAO",
        "coordinates": {
            "lat": "-24.017263",
            "lng": "-46.457598"
        }
    },
    {
        "nome": "JARDIM EUROPA",
        "coordinates": {
            "lat": "-22.981963",
            "lng": "-47.007923"
        }
    },
    {
        "nome": "JARDIM AUGUSTA",
        "coordinates": {
            "lat": "-23.200501",
            "lng": "-45.880232"
        }
    },
    {
        "nome": "PIRAPITINGUY",
        "coordinates": {
            "lat": "-22.898526",
            "lng": "-45.30586"
        }
    },
    {
        "nome": "VL BRANDINA",
        "coordinates": {
            "lat": "-22.89369",
            "lng": "-47.025433"
        }
    },
    {
        "nome": "JD DAS PALMEIRAS",
        "coordinates": {
            "lat": "-22.773145",
            "lng": "-47.291154"
        }
    },
    {
        "nome": "JARDIM UMUARAMA",
        "coordinates": {
            "lat": "-23.657556",
            "lng": "-46.679642"
        }
    },
    {
        "nome": "CENTRO",
        "coordinates": {
            "lat": "-23.969921",
            "lng": "-46.187747"
        }
    },
    {
        "nome": "ASSUNCAO",
        "coordinates": {
            "lat": "-23.72287",
            "lng": "-46.570004"
        }
    },
    {
        "nome": "JARDIM FLORESTA",
        "coordinates": {
            "lat": "-23.740461",
            "lng": "-46.706904"
        }
    },
    {
        "nome": "CENTRO",
        "coordinates": {
            "lat": "-22.604305",
            "lng": "-46.70581"
        }
    },
    {
        "nome": "JAGUARIBE",
        "coordinates": {
            "lat": "-23.562738",
            "lng": "-46.790247"
        }
    },
    {
        "nome": "BRAS",
        "coordinates": {
            "lat": "-23.536311",
            "lng": "-46.622458"
        }
    },
    {
        "nome": "PRQ FABER",
        "coordinates": {
            "lat": "-22.01617",
            "lng": "-47.9164"
        }
    },
    {
        "nome": "VILA NOGUEIRA",
        "coordinates": {
            "lat": "-23.689254",
            "lng": "-46.590704"
        }
    },
    {
        "nome": "JARDIM MOSSAPYRA",
        "coordinates": {
            "lat": "-23.437833",
            "lng": "-46.320702"
        }
    },
    {
        "nome": "LAUZANE PAULISTA",
        "coordinates": {
            "lat": "-23.477341",
            "lng": "-46.645628"
        }
    },
    {
        "nome": "VILA IPE",
        "coordinates": {
            "lat": "-22.669779",
            "lng": "-45.175781"
        }
    },
    {
        "nome": "JARDIM IRAPIRANGA",
        "coordinates": {
            "lat": "-23.662292",
            "lng": "-46.793797"
        }
    },
    {
        "nome": "BOQUEIR?O",
        "coordinates": {
            "lat": "-24.002817",
            "lng": "-46.413031"
        }
    },
    {
        "nome": "JARDIM PAULISTA",
        "coordinates": {
            "lat": "-23.566701",
            "lng": "-46.659172"
        }
    },
    {
        "nome": "PARQUE JACATUBA",
        "coordinates": {
            "lat": "-23.651581",
            "lng": "-46.512319"
        }
    },
    {
        "nome": "VILA BELMIRO",
        "coordinates": {
            "lat": "-23.957372",
            "lng": "-46.337736"
        }
    },
    {
        "nome": "VILA MOGILAR",
        "coordinates": {
            "lat": "-23.511639",
            "lng": "-46.190364"
        }
    },
    {
        "nome": "CENTRO",
        "coordinates": {
            "lat": "-22.87951",
            "lng": "-48.44218"
        }
    },
    {
        "nome": "JARDIM SANTA CLARA",
        "coordinates": {
            "lat": "-23.014731",
            "lng": "-45.551012"
        }
    },
    {
        "nome": "CENTRO",
        "coordinates": {
            "lat": "-23.30489",
            "lng": "-45.9698"
        }
    },
    {
        "nome": "PARQUE IMPERIAL",
        "coordinates": {
            "lat": "-23.487533",
            "lng": "-46.806779"
        }
    },
    {
        "nome": "VILA SILVA RIBEIRO",
        "coordinates": {
            "lat": "-23.540352",
            "lng": "-46.835017"
        }
    },
    {
        "nome": "REPUBLICA",
        "coordinates": {
            "lat": "-23.546174",
            "lng": "-46.64006"
        }
    },
    {
        "nome": "JARDIM DO BOSQUE",
        "coordinates": {
            "lat": "-21.5973",
            "lng": "-48.35158"
        }
    },
    {
        "nome": "CANGAIBA",
        "coordinates": {
            "lat": "-23.496683",
            "lng": "-46.51349"
        }
    },
    {
        "nome": "SITIO DO CAMPO",
        "coordinates": {
            "lat": "-23.997701",
            "lng": "-46.411099"
        }
    },
    {
        "nome": "JD SAO BERNARDO",
        "coordinates": {
            "lat": "-23.745028",
            "lng": "-46.694555"
        }
    },
    {
        "nome": "PARQUE AMERICA",
        "coordinates": {
            "lat": "-23.736582",
            "lng": "-46.693118"
        }
    },
    {
        "nome": "CERQUEIRA CESAR",
        "coordinates": {
            "lat": "-23.569652",
            "lng": "-46.648185"
        }
    },
    {
        "nome": "FRAGATA",
        "coordinates": {
            "lat": "-22.2257",
            "lng": "-49.934779"
        }
    },
    {
        "nome": "VILA S?O PEDRO",
        "coordinates": {
            "lat": "-23.714364",
            "lng": "-46.529638"
        }
    },
    {
        "nome": "CIDADE MUNHOZ JUNIOR",
        "coordinates": {
            "lat": "-23.502607",
            "lng": "-46.802208"
        }
    },
    {
        "nome": "JD ESPLANADA",
        "coordinates": {
            "lat": "-23.206471",
            "lng": "-45.905687"
        }
    },
    {
        "nome": "PARQUE SAO VICENTE",
        "coordinates": {
            "lat": "-23.669859",
            "lng": "-46.472858"
        }
    },
    {
        "nome": "CIDADE JARDIM",
        "coordinates": {
            "lat": "-23.628543",
            "lng": "-46.715332"
        }
    },
    {
        "nome": "CHACARA URBANA",
        "coordinates": {
            "lat": "-23.185093",
            "lng": "-46.893221"
        }
    },
    {
        "nome": "ZONA PRODUCAO INDUSTRIAL 03",
        "coordinates": {
            "lat": "-22.785326",
            "lng": "-47.300934"
        }
    },
    {
        "nome": "VILA GALVAO",
        "coordinates": {
            "lat": "-23.459723",
            "lng": "-46.56656"
        }
    },
    {
        "nome": "JARDIM MONTE ALEGRE",
        "coordinates": {
            "lat": "-23.47598",
            "lng": "-46.703408"
        }
    },
    {
        "nome": "CIDADE ADEMAR",
        "coordinates": {
            "lat": "-23.666321",
            "lng": "-46.657863"
        }
    },
    {
        "nome": "CIDADE PLANEJADA I",
        "coordinates": {
            "lat": "-22.916182",
            "lng": "-46.553567"
        }
    },
    {
        "nome": "PARQUE RES COCAIA",
        "coordinates": {
            "lat": "-23.733612",
            "lng": "-46.66936"
        }
    },
    {
        "nome": "CENTRO",
        "coordinates": {
            "lat": "-21.59538",
            "lng": "-48.80981"
        }
    },
    {
        "nome": "JD WANDA",
        "coordinates": {
            "lat": "-23.610697",
            "lng": "-46.930884"
        }
    },
    {
        "nome": "JD CLIMAX",
        "coordinates": {
            "lat": "-22.760526",
            "lng": "-47.157303"
        }
    },
    {
        "nome": "CENTRO",
        "coordinates": {
            "lat": "-23.022379",
            "lng": "-45.55187"
        }
    },
    {
        "nome": "JARDIM DOS PASSAROS",
        "coordinates": {
            "lat": "-23.991193",
            "lng": "-46.278169"
        }
    },
    {
        "nome": "JD SANTA LUCIA",
        "coordinates": {
            "lat": "-23.210388",
            "lng": "-46.79354"
        }
    },
    {
        "nome": "JD SANTA LUCIA",
        "coordinates": {
            "lat": "-23.210388",
            "lng": "-46.79354"
        }
    },
    {
        "nome": "JD.SANTA FRANCISCA",
        "coordinates": {
            "lat": "-23.474023",
            "lng": "-46.528652"
        }
    },
    {
        "nome": "CENTRO",
        "coordinates": {
            "lat": "-23.527615",
            "lng": "-46.345001"
        }
    },
    {
        "nome": "VL BRANDINA",
        "coordinates": {
            "lat": "-22.89369",
            "lng": "-47.025433"
        }
    },
    {
        "nome": "PORTAL DOS IPES I - POLVILHO",
        "coordinates": {
            "lat": "-23.42313",
            "lng": "-46.891901"
        }
    },
    {
        "nome": "JARDIM COLONIAL",
        "coordinates": {
            "lat": "-23.598578",
            "lng": "-46.462989"
        }
    },
    {
        "nome": "PARQUE SANTA TERESA",
        "coordinates": {
            "lat": "-23.56718",
            "lng": "-46.823494"
        }
    },